[

{
  "type": "node",
  "id": 194586875,
  "lat": 41.3780148,
  "lon": 2.1684933,
  "timestamp": "2009-07-01T07:14:18Z",
  "version": 4,
  "changeset": 1697791,
  "user": "pstng",
  "uid": 120926,
  "tags": {
    "amenity": "place_of_worship",
    "created_by": "Potlatch 0.6",
    "name": "Mesquita Shah Jalal Jame",
    "religion": "muslim"
  }
},
{
  "type": "node",
  "id": 354879940,
  "lat": 41.5861552,
  "lon": 1.6176058,
  "timestamp": "2016-08-11T20:16:11Z",
  "version": 3,
  "changeset": 41397109,
  "user": "yopaseopor",
  "uid": 500572,
  "tags": {
    "amenity": "place_of_worship",
    "denomination": "catholic",
    "name": "Sagrada Família",
    "religion": "christian"
  }
},
{
  "type": "node",
  "id": 369571181,
  "lat": 41.0947328,
  "lon": 0.9379915,
  "timestamp": "2018-10-24T11:00:42Z",
  "version": 5,
  "changeset": 63827858,
  "user": "Jesús Gómez",
  "uid": 6389,
  "tags": {
    "amenity": "place_of_worship",
    "denomination": "catholic",
    "name": "Mare de Déu de la Roca",
    "religion": "christian",
    "wikidata": "Q11919609"
  }
},
{
  "type": "node",
  "id": 370907724,
  "lat": 41.9846655,
  "lon": 2.9088323,
  "timestamp": "2010-07-13T13:21:43Z",
  "version": 4,
  "changeset": 5207929,
  "user": "Freek",
  "uid": 5446,
  "tags": {
    "amenity": "place_of_worship",
    "denomination": "catholic",
    "name": "Esglesia dels Angels",
    "religion": "christian"
  }
},
{
  "type": "node",
  "id": 390874777,
  "lat": 41.5781231,
  "lon": 1.6215401,
  "timestamp": "2018-10-24T09:54:02Z",
  "version": 3,
  "changeset": 63825592,
  "user": "Jesús Gómez",
  "uid": 6389,
  "tags": {
    "amenity": "place_of_worship",
    "denomination": "catholic",
    "name": "Esglèsia de la Soledat",
    "religion": "christian",
    "wikidata": "Q18696170"
  }
},
{
  "type": "node",
  "id": 390945517,
  "lat": 41.7685658,
  "lon": 2.2503400,
  "timestamp": "2009-10-27T08:49:59Z",
  "version": 3,
  "changeset": 2963415,
  "user": "pstng",
  "uid": 120926,
  "tags": {
    "amenity": "place_of_worship",
    "denomination": "catholic",
    "name": "Parròquia de Santa Maria",
    "religion": "christian"
  }
},
{
  "type": "node",
  "id": 392073449,
  "lat": 41.7484161,
  "lon": 2.2469915,
  "timestamp": "2017-09-25T03:23:36Z",
  "version": 4,
  "changeset": 52343145,
  "user": "nyuriks",
  "uid": 339581,
  "tags": {
    "amenity": "place_of_worship",
    "denomination": "catholic",
    "name": "Sant Pere de Valldaneu",
    "religion": "christian",
    "wikidata": "Q11954280",
    "wikipedia": "ca:Valldaneu"
  }
},
{
  "type": "node",
  "id": 393176118,
  "lat": 41.7163371,
  "lon": 2.1903218,
  "timestamp": "2014-06-24T17:31:53Z",
  "version": 4,
  "changeset": 23127339,
  "user": "Luiyo",
  "uid": 316694,
  "tags": {
    "amenity": "place_of_worship",
    "denomination": "catholic",
    "name": "Sant Miquel del Fai",
    "religion": "christian"
  }
},
{
  "type": "node",
  "id": 395228349,
  "lat": 41.2418028,
  "lon": 1.4761935,
  "timestamp": "2014-03-10T20:30:19Z",
  "version": 4,
  "changeset": 21033716,
  "user": "xbatlle",
  "uid": 355282,
  "tags": {
    "amenity": "place_of_worship",
    "denomination": "catholic",
    "name": "Ermita de Sant Antoni de Pàdua",
    "religion": "christian"
  }
},
{
  "type": "node",
  "id": 401288429,
  "lat": 41.7746451,
  "lon": 3.0274075,
  "timestamp": "2012-06-08T09:27:30Z",
  "version": 2,
  "changeset": 11833359,
  "user": "DXB74",
  "uid": 601864,
  "tags": {
    "amenity": "place_of_worship",
    "denomination": "catholic",
    "name": "Erimita St. Elm",
    "religion": "christian"
  }
},
{
  "type": "node",
  "id": 410246948,
  "lat": 41.8783724,
  "lon": 2.1775929,
  "timestamp": "2016-06-16T23:48:48Z",
  "version": 3,
  "changeset": 40080497,
  "user": "idrissi",
  "uid": 3436983,
  "tags": {
    "amenity": "place_of_worship",
    "name": "Església de Sant Quirze i Santa Julita de Muntanyola",
    "religion": "christian"
  }
},
{
  "type": "node",
  "id": 410437050,
  "lat": 41.6687613,
  "lon": 2.3499789,
  "timestamp": "2009-05-24T08:52:33Z",
  "version": 1,
  "changeset": 1302424,
  "user": "Jaume Figueras",
  "uid": 55987,
  "tags": {
    "amenity": "place_of_worship",
    "denomination": "catholic",
    "name": "Ermita de Sant Hilari",
    "religion": "christian"
  }
},
{
  "type": "node",
  "id": 414865212,
  "lat": 41.4133879,
  "lon": 2.0177220,
  "timestamp": "2009-06-02T17:38:44Z",
  "version": 1,
  "changeset": 1405654,
  "user": "jordi_j",
  "uid": 123381,
  "tags": {
    "amenity": "place_of_worship",
    "name": "Parròquia de Sant Miquel Arcàngel",
    "religion": "christian"
  }
},
{
  "type": "node",
  "id": 415759916,
  "lat": 41.8596885,
  "lon": 0.7370895,
  "timestamp": "2018-10-24T12:00:45Z",
  "version": 3,
  "changeset": 63829505,
  "user": "Jesús Gómez",
  "uid": 6389,
  "tags": {
    "amenity": "place_of_worship",
    "building": "chapel",
    "denomination": "catholic",
    "name": "Mare de Déu d'Aguilar",
    "religion": "christian",
    "wikidata": "Q20985944"
  }
},
{
  "type": "node",
  "id": 415783134,
  "lat": 41.4403488,
  "lon": 2.2159293,
  "timestamp": "2019-07-16T18:15:14Z",
  "version": 6,
  "changeset": 72317809,
  "user": "yopaseopor",
  "uid": 500572,
  "tags": {
    "addr:city": "Badalona",
    "addr:housenumber": "67-71",
    "addr:postcode": "08913",
    "addr:street": "ronda de sant Antoni de Llefià",
    "amenity": "place_of_worship",
    "denomination": "catholic",
    "name": "Parròquia de Sant Antoni de Llefià",
    "phone": "+34933880630",
    "religion": "christian"
  }
},
{
  "type": "node",
  "id": 435266239,
  "lat": 41.7884884,
  "lon": 2.2575120,
  "timestamp": "2018-10-24T09:51:15Z",
  "version": 2,
  "changeset": 63825592,
  "user": "Jesús Gómez",
  "uid": 6389,
  "tags": {
    "amenity": "place_of_worship",
    "denomination": "catholic",
    "name": "Aiguafreda de Dalt",
    "religion": "christian",
    "wikidata": "Q11947215"
  }
},
{
  "type": "node",
  "id": 435266431,
  "lat": 41.7588830,
  "lon": 2.2461530,
  "timestamp": "2014-12-06T22:32:19Z",
  "version": 2,
  "changeset": 27301083,
  "user": "sim6",
  "uid": 129718,
  "tags": {
    "amenity": "place_of_worship",
    "denomination": "catholic",
    "name": "Església de l'Oller",
    "religion": "christian"
  }
},
{
  "type": "node",
  "id": 449055298,
  "lat": 41.4404448,
  "lon": 2.2277544,
  "timestamp": "2019-07-16T18:15:14Z",
  "version": 5,
  "changeset": 72317809,
  "user": "yopaseopor",
  "uid": 500572,
  "tags": {
    "addr:city": "Badalona",
    "addr:street": "Passeig de la Salut",
    "amenity": "place_of_worship",
    "denomination": "catholic",
    "religion": "christian"
  }
},
{
  "type": "node",
  "id": 473456435,
  "lat": 41.3104727,
  "lon": 1.8107870,
  "timestamp": "2019-07-28T07:29:54Z",
  "version": 4,
  "changeset": 72731261,
  "user": "ramonz",
  "uid": 2047207,
  "tags": {
    "amenity": "place_of_worship",
    "name": "Sant Pere i Sant Feliu",
    "religion": "christian"
  }
},
{
  "type": "node",
  "id": 499083303,
  "lat": 41.4304759,
  "lon": 2.1752000,
  "timestamp": "2009-09-17T14:49:00Z",
  "version": 1,
  "changeset": 2512528,
  "user": "Oscar Fonts",
  "uid": 29344,
  "tags": {
    "amenity": "place_of_worship",
    "name": "Parròquia de Santa Eulàlia de Vilapicina",
    "religion": "christian"
  }
},
{
  "type": "node",
  "id": 529573144,
  "lat": 41.4948457,
  "lon": 0.4577055,
  "timestamp": "2017-03-04T17:24:46Z",
  "version": 2,
  "changeset": 46577544,
  "user": "5R-MFT",
  "uid": 3417876,
  "tags": {
    "amenity": "place_of_worship",
    "denomination": "catholic",
    "name": "Sant Antolí",
    "religion": "christian"
  }
},
{
  "type": "node",
  "id": 529686105,
  "lat": 41.1110911,
  "lon": 1.1449375,
  "timestamp": "2018-10-24T11:02:09Z",
  "version": 4,
  "changeset": 63827858,
  "user": "Jesús Gómez",
  "uid": 6389,
  "tags": {
    "addr:city": "Vila-seca",
    "amenity": "place_of_worship",
    "denomination": "catholic",
    "name": "Església de Sant Esteve",
    "religion": "christian",
    "wikidata": "Q18006761"
  }
},
{
  "type": "node",
  "id": 534249981,
  "lat": 41.0801438,
  "lon": 1.1799331,
  "timestamp": "2009-10-17T13:55:22Z",
  "version": 1,
  "changeset": 2873668,
  "user": "Antonio Eugenio Burriel",
  "uid": 24070,
  "tags": {
    "amenity": "place_of_worship",
    "denomination": "catholic",
    "name": "Església de l'Esperit Sant",
    "religion": "christian"
  }
},
{
  "type": "node",
  "id": 535767042,
  "lat": 41.7030394,
  "lon": 2.7615981,
  "timestamp": "2009-10-19T19:57:33Z",
  "version": 1,
  "changeset": 2897401,
  "user": "Blanes Lluis",
  "uid": 172008,
  "tags": {
    "amenity": "place_of_worship",
    "denomination": "catholic",
    "name": "Sant Daniel",
    "religion": "christian"
  }
},
{
  "type": "node",
  "id": 557010137,
  "lat": 41.5633253,
  "lon": 0.5242832,
  "timestamp": "2012-12-06T15:48:08Z",
  "version": 2,
  "changeset": 14176753,
  "user": "faireman",
  "uid": 601538,
  "tags": {
    "amenity": "place_of_worship",
    "building": "yes",
    "denomination": "catholic",
    "name": "Esglèsia Mare de Déu de l'Assumpció",
    "religion": "christian"
  }
},
{
  "type": "node",
  "id": 565561474,
  "lat": 41.6695376,
  "lon": 2.6340310,
  "timestamp": "2018-10-24T09:55:35Z",
  "version": 8,
  "changeset": 63825592,
  "user": "Jesús Gómez",
  "uid": 6389,
  "tags": {
    "amenity": "place_of_worship",
    "historic": "yes",
    "name": "Capella de la Mare de Déu de l'Erola",
    "religion": "christian",
    "wikidata": "Q23498953",
    "wikipedia": "ca:Mare de Déu de l'Erola (Tordera)"
  }
},
{
  "type": "node",
  "id": 566902208,
  "lat": 41.6679731,
  "lon": 2.6284349,
  "timestamp": "2018-10-24T09:52:07Z",
  "version": 5,
  "changeset": 63825592,
  "user": "Jesús Gómez",
  "uid": 6389,
  "tags": {
    "alt_name": "Esglèsia de Sant Llop d'Hortsavinyà",
    "amenity": "place_of_worship",
    "historic": "yes",
    "name": "Esglèsia de Santa Eulàlia d'Hortsavinyà",
    "religion": "christian",
    "wikidata": "Q17301091"
  }
},
{
  "type": "node",
  "id": 566902789,
  "lat": 41.6729150,
  "lon": 2.6533930,
  "timestamp": "2017-09-25T03:23:38Z",
  "version": 5,
  "changeset": 52343145,
  "user": "nyuriks",
  "uid": 339581,
  "tags": {
    "amenity": "place_of_worship",
    "historic": "yes",
    "name": "Sant Miquel de Vallmanya",
    "religion": "christian",
    "wikidata": "Q18007166",
    "wikipedia": "ca:Sant Miquel de Vallmanya"
  }
},
{
  "type": "node",
  "id": 582782097,
  "lat": 41.8212729,
  "lon": 2.3549804,
  "timestamp": "2014-05-26T15:15:19Z",
  "version": 4,
  "changeset": 22564600,
  "user": "EliziR",
  "uid": 605366,
  "tags": {
    "amenity": "place_of_worship",
    "name": "Sant Miquel dels Barretons",
    "religion": "christian"
  }
},
{
  "type": "node",
  "id": 582783372,
  "lat": 41.8220444,
  "lon": 2.3547667,
  "timestamp": "2014-05-26T15:15:20Z",
  "version": 3,
  "changeset": 22564600,
  "user": "EliziR",
  "uid": 605366,
  "tags": {
    "amenity": "place_of_worship",
    "name": "Sant Segimon",
    "religion": "christian"
  }
},
{
  "type": "node",
  "id": 603742734,
  "lat": 41.4936466,
  "lon": 2.2944593,
  "timestamp": "2010-01-03T18:43:56Z",
  "version": 2,
  "changeset": 3531352,
  "user": "Niccolo",
  "uid": 864,
  "tags": {
    "amenity": "place_of_worship",
    "denomination": "catholic",
    "name": "San Feliu d'Alella",
    "religion": "christian"
  }
},
{
  "type": "node",
  "id": 610830600,
  "lat": 41.3653100,
  "lon": 2.1190403,
  "timestamp": "2018-10-24T09:51:19Z",
  "version": 2,
  "changeset": 63825592,
  "user": "Jesús Gómez",
  "uid": 6389,
  "tags": {
    "amenity": "place_of_worship",
    "denomination": "catholic",
    "name": "Santa Eulalia de Provençana",
    "religion": "christian",
    "wikidata": "Q11947523"
  }
},
{
  "type": "node",
  "id": 678297030,
  "lat": 41.4008830,
  "lon": 2.1444305,
  "timestamp": "2010-04-06T14:16:30Z",
  "version": 2,
  "changeset": 4344462,
  "user": "pstng",
  "uid": 120926,
  "tags": {
    "amenity": "place_of_worship",
    "denomination": "catholic",
    "name": "Santa Agnès",
    "religion": "christian"
  }
},
{
  "type": "node",
  "id": 764093849,
  "lat": 41.6666254,
  "lon": 1.2695276,
  "timestamp": "2010-06-04T09:41:35Z",
  "version": 1,
  "changeset": 4899591,
  "user": "lehmans",
  "uid": 212817,
  "tags": {
    "amenity": "place_of_worship",
    "name": "Església de Sant Magí",
    "religion": "christian"
  }
},
{
  "type": "node",
  "id": 764093850,
  "lat": 41.6652308,
  "lon": 1.2725048,
  "timestamp": "2010-06-04T09:41:35Z",
  "version": 1,
  "changeset": 4899591,
  "user": "lehmans",
  "uid": 212817,
  "tags": {
    "amenity": "place_of_worship",
    "religion": "christian"
  }
},
{
  "type": "node",
  "id": 777030077,
  "lat": 40.5439370,
  "lon": 0.4812172,
  "timestamp": "2012-03-26T18:24:20Z",
  "version": 4,
  "changeset": 11108560,
  "user": "calpur",
  "uid": 154060,
  "tags": {
    "amenity": "place_of_worship",
    "name": "Església De St. Miquel",
    "religion": "christian"
  }
},
{
  "type": "node",
  "id": 795788752,
  "lat": 41.9850403,
  "lon": 2.8265741,
  "timestamp": "2018-10-20T18:17:11Z",
  "version": 3,
  "changeset": 63710924,
  "user": "Jesús Gómez",
  "uid": 6389,
  "tags": {
    "amenity": "place_of_worship",
    "denomination": "catholic",
    "name": "Església de Sant Martí Sacosta",
    "name:ca": "Església de Sant Martí Sacosta",
    "religion": "christian",
    "source": "Ajuntament de Girona",
    "wikidata": "Q19368250"
  }
},
{
  "type": "node",
  "id": 810182635,
  "lat": 42.3416525,
  "lon": 1.6043267,
  "timestamp": "2018-01-06T11:35:11Z",
  "version": 3,
  "changeset": 55208888,
  "user": "pedrobv",
  "uid": 581863,
  "tags": {
    "amenity": "place_of_worship",
    "denomination": "catholic",
    "name": "Sant Cristòfol",
    "religion": "christian"
  }
},
{
  "type": "node",
  "id": 815019281,
  "lat": 41.9899201,
  "lon": 2.9571728,
  "timestamp": "2010-07-13T14:00:42Z",
  "version": 1,
  "changeset": 5207929,
  "user": "Freek",
  "uid": 5446,
  "tags": {
    "amenity": "place_of_worship",
    "name": "Església de Sant Esteve",
    "religion": "christian"
  }
},
{
  "type": "node",
  "id": 824199743,
  "lat": 41.5734002,
  "lon": 2.2343215,
  "timestamp": "2017-05-18T21:35:15Z",
  "version": 2,
  "changeset": 48804260,
  "user": "Jose Luis Infante",
  "uid": 126203,
  "tags": {
    "amenity": "place_of_worship",
    "religion": "christian"
  }
},
{
  "type": "node",
  "id": 826504180,
  "lat": 41.9318710,
  "lon": 2.6381749,
  "timestamp": "2010-07-20T18:03:53Z",
  "version": 1,
  "changeset": 5272849,
  "user": "Xevi",
  "uid": 100124,
  "tags": {
    "amenity": "place_of_worship",
    "name": "Ermita de Sant Amanç",
    "religion": "christian"
  }
},
{
  "type": "node",
  "id": 832487560,
  "lat": 40.5525590,
  "lon": 0.5307193,
  "timestamp": "2010-10-30T20:57:56Z",
  "version": 3,
  "changeset": 6233285,
  "user": "Geogast",
  "uid": 51045,
  "tags": {
    "amenity": "place_of_worship",
    "name": "Església de Sant Pere",
    "religion": "christian"
  }
},
{
  "type": "node",
  "id": 853199494,
  "lat": 41.3717875,
  "lon": 2.0851014,
  "timestamp": "2012-11-23T23:12:36Z",
  "version": 3,
  "changeset": 14006586,
  "user": "Geogast",
  "uid": 51045,
  "tags": {
    "amenity": "place_of_worship",
    "denomination": "catholic",
    "name": "Sant Mateu",
    "religion": "christian"
  }
},
{
  "type": "node",
  "id": 862151305,
  "lat": 41.3940849,
  "lon": 2.2018589,
  "timestamp": "2013-04-11T12:03:30Z",
  "version": 4,
  "changeset": 15689013,
  "user": "EliziR",
  "uid": 605366,
  "tags": {
    "amenity": "place_of_worship",
    "name": "Centre Ecumènic",
    "religion": "christian"
  }
},
{
  "type": "node",
  "id": 863356361,
  "lat": 42.1813447,
  "lon": 2.4854837,
  "timestamp": "2010-08-16T15:32:00Z",
  "version": 1,
  "changeset": 5510186,
  "user": "SK53",
  "uid": 84681,
  "tags": {
    "amenity": "place_of_worship",
    "denomination": "catholic",
    "name": "Sant Ferriol",
    "note": "status not certain",
    "religion": "christian"
  }
},
{
  "type": "node",
  "id": 867469541,
  "lat": 41.9736049,
  "lon": 2.6183160,
  "timestamp": "2011-10-13T12:07:28Z",
  "version": 3,
  "changeset": 9544161,
  "user": "wheelmap_visitor",
  "uid": 290680,
  "tags": {
    "amenity": "place_of_worship",
    "name": "Oratori de Sant Benet de Palerm",
    "religion": "christian",
    "wheelchair": "limited"
  }
},
{
  "type": "node",
  "id": 867469690,
  "lat": 41.9703686,
  "lon": 2.6174173,
  "timestamp": "2011-10-13T12:07:27Z",
  "version": 4,
  "changeset": 9544161,
  "user": "wheelmap_visitor",
  "uid": 290680,
  "tags": {
    "amenity": "place_of_worship",
    "name": "Oratori de Sant Pelegri",
    "religion": "christian",
    "wheelchair": "yes"
  }
},
{
  "type": "node",
  "id": 881053937,
  "lat": 41.6254841,
  "lon": 2.2483485,
  "timestamp": "2018-10-24T09:50:25Z",
  "version": 3,
  "changeset": 63825592,
  "user": "Jesús Gómez",
  "uid": 6389,
  "tags": {
    "amenity": "place_of_worship",
    "denomination": "catholic",
    "name": "Ermita de Santa Justa",
    "religion": "christian",
    "wikidata": "Q11919620"
  }
},
{
  "type": "node",
  "id": 886589467,
  "lat": 41.7185742,
  "lon": 2.9319709,
  "timestamp": "2018-09-30T12:23:14Z",
  "version": 7,
  "changeset": 63062168,
  "user": "anonyuser",
  "uid": 4916186,
  "tags": {
    "amenity": "place_of_worship",
    "name": "La mare de deu dels socors",
    "name:es": "La mare de Déu",
    "religion": "christian"
  }
},
{
  "type": "node",
  "id": 937861444,
  "lat": 41.3663245,
  "lon": 2.1320872,
  "timestamp": "2010-10-28T22:46:54Z",
  "version": 2,
  "changeset": 6213032,
  "user": "santibejar",
  "uid": 352740,
  "tags": {
    "amenity": "place_of_worship",
    "denomination": "catholic",
    "name": "Sant Isidre Llaurador",
    "religion": "christian"
  }
},
{
  "type": "node",
  "id": 946959884,
  "lat": 41.5727984,
  "lon": 0.6032700,
  "timestamp": "2010-10-13T18:52:21Z",
  "version": 1,
  "changeset": 6032213,
  "user": "cardinal",
  "uid": 147072,
  "tags": {
    "amenity": "place_of_worship",
    "religion": "christian"
  }
},
{
  "type": "node",
  "id": 958121582,
  "lat": 41.2916569,
  "lon": 1.8536124,
  "timestamp": "2019-10-31T12:57:02Z",
  "version": 4,
  "changeset": 76449954,
  "user": "EliziR",
  "uid": 605366,
  "tags": {
    "alt_name": "la Plana Novella",
    "amenity": "place_of_worship",
    "historic": "monument",
    "name": "Sakya Tashi Ling",
    "religion": "buddhist",
    "wikidata": "Q7403232"
  }
},
{
  "type": "node",
  "id": 961073607,
  "lat": 41.3705729,
  "lon": 2.1226143,
  "timestamp": "2012-04-21T05:23:09Z",
  "version": 3,
  "changeset": 11370483,
  "user": "cgu66",
  "uid": 152289,
  "tags": {
    "amenity": "place_of_worship",
    "denomination": "catholic",
    "name": "Mare de Déu dels Desemparats",
    "religion": "christian"
  }
},
{
  "type": "node",
  "id": 963657237,
  "lat": 41.3704789,
  "lon": 2.1095402,
  "timestamp": "2010-10-24T23:47:03Z",
  "version": 2,
  "changeset": 6164868,
  "user": "Mapper@Hospitalet",
  "uid": 361869,
  "tags": {
    "amenity": "place_of_worship",
    "denomination": "catholic",
    "name": "Parròquia de la Mare de Déu de la Llum",
    "religion": "christian"
  }
},
{
  "type": "node",
  "id": 966112981,
  "lat": 42.0098447,
  "lon": 2.6019394,
  "timestamp": "2018-10-20T19:56:30Z",
  "version": 4,
  "changeset": 63713096,
  "user": "Jesús Gómez",
  "uid": 6389,
  "tags": {
    "amenity": "place_of_worship",
    "name": "Santa Maria d'Amer",
    "religion": "christian",
    "wikidata": "Q9034461"
  }
},
{
  "type": "node",
  "id": 976066595,
  "lat": 42.3102195,
  "lon": 2.8398446,
  "timestamp": "2010-11-03T20:39:15Z",
  "version": 1,
  "changeset": 6279315,
  "user": "rpla",
  "uid": 7377,
  "tags": {
    "amenity": "place_of_worship",
    "denomination": "catholic",
    "name": "Santa Cecília",
    "religion": "christian"
  }
},
{
  "type": "node",
  "id": 984922953,
  "lat": 42.2619880,
  "lon": 3.1780914,
  "timestamp": "2010-11-11T01:04:53Z",
  "version": 1,
  "changeset": 6340839,
  "user": "rpla",
  "uid": 7377,
  "tags": {
    "amenity": "place_of_worship",
    "denomination": "catholic",
    "religion": "christian"
  }
},
{
  "type": "node",
  "id": 1027160680,
  "lat": 41.7433756,
  "lon": 2.9336733,
  "timestamp": "2014-03-03T12:44:01Z",
  "version": 7,
  "changeset": 20887478,
  "user": "MichaelCollinson",
  "uid": 308,
  "tags": {
    "amenity": "place_of_worship",
    "denomination": "catholic",
    "description": "Ruined chapel",
    "historic": "ruins",
    "name": "Mare de Déu de Gràcia",
    "name:en": "Our Lady of Grace chapel ruins",
    "religion": "christian"
  }
},
{
  "type": "node",
  "id": 1074183374,
  "lat": 41.3665764,
  "lon": 2.0149520,
  "timestamp": "2014-10-31T18:12:23Z",
  "version": 3,
  "changeset": 26467776,
  "user": "Luis Peña",
  "uid": 2418388,
  "tags": {
    "addr:city": "Santa Coloma de Cervelló",
    "addr:postcode": "08690",
    "addr:street": "Carrer de l' Esglèsia",
    "amenity": "place_of_worship",
    "denomination": "catholic",
    "name": "Esglesia de Santa Coloma",
    "religion": "christian"
  }
},
{
  "type": "node",
  "id": 1092790385,
  "lat": 41.8889096,
  "lon": 2.7426845,
  "timestamp": "2011-01-09T00:34:55Z",
  "version": 1,
  "changeset": 6910905,
  "user": "rpla",
  "uid": 7377,
  "tags": {
    "amenity": "place_of_worship",
    "denomination": "catholic",
    "name": "Sant Esteve",
    "religion": "christian"
  }
},
{
  "type": "node",
  "id": 1096786669,
  "lat": 41.4525306,
  "lon": 1.9650418,
  "timestamp": "2012-08-14T11:38:02Z",
  "version": 3,
  "changeset": 12725781,
  "user": "pitort",
  "uid": 469238,
  "tags": {
    "amenity": "place_of_worship",
    "name": "Església Cristiana",
    "religion": "christian"
  }
},
{
  "type": "node",
  "id": 1117783711,
  "lat": 42.3147659,
  "lon": 1.5865866,
  "timestamp": "2019-11-06T16:41:40Z",
  "version": 2,
  "changeset": 76713539,
  "user": "Toni Serra",
  "uid": 3859465,
  "tags": {
    "amenity": "place_of_worship",
    "name": "Ermita de nostra senyora del Boscalt",
    "religion": "christian",
    "source": "PNOA",
    "source:date": "2008"
  }
},
{
  "type": "node",
  "id": 1119520744,
  "lat": 42.2470767,
  "lon": 2.9378011,
  "timestamp": "2016-04-25T10:24:42Z",
  "version": 2,
  "changeset": 38852862,
  "user": "lanxana",
  "uid": 3735848,
  "tags": {
    "amenity": "place_of_worship",
    "denomination": "catholic",
    "name": "Sant Cebrià",
    "religion": "christian"
  }
},
{
  "type": "node",
  "id": 1148756779,
  "lat": 41.9891500,
  "lon": 0.7115147,
  "timestamp": "2011-02-12T09:43:48Z",
  "version": 1,
  "changeset": 7262739,
  "user": "jlarregula",
  "uid": 400055,
  "tags": {
    "amenity": "place_of_worship",
    "denomination": "catholic",
    "name": "Sant Llobí",
    "religion": "christian"
  }
},
{
  "type": "node",
  "id": 1207185820,
  "lat": 41.7931706,
  "lon": 3.0259541,
  "timestamp": "2011-03-18T11:29:17Z",
  "version": 1,
  "changeset": 7594256,
  "user": "fannydominguez",
  "uid": 423510,
  "tags": {
    "amenity": "place_of_worship"
  }
},
{
  "type": "node",
  "id": 1218641977,
  "lat": 41.6738937,
  "lon": 2.2597143,
  "timestamp": "2015-12-04T20:27:14Z",
  "version": 2,
  "changeset": 35755963,
  "user": "yopaseopor",
  "uid": 500572,
  "tags": {
    "amenity": "place_of_worship",
    "name": "Parròquia dels Sants Genís i Genís",
    "religion": "christian"
  }
},
{
  "type": "node",
  "id": 1233850415,
  "lat": 41.5982356,
  "lon": 2.4210027,
  "timestamp": "2017-10-22T20:19:18Z",
  "version": 2,
  "changeset": 53161697,
  "user": "jqngarcia",
  "uid": 5126253,
  "tags": {
    "amenity": "place_of_worship",
    "name": "Ermita de Sant Llop",
    "religion": "christian"
  }
},
{
  "type": "node",
  "id": 1235125232,
  "lat": 41.7193660,
  "lon": 0.9707335,
  "timestamp": "2011-04-06T20:20:12Z",
  "version": 1,
  "changeset": 7788896,
  "user": "ottokar55",
  "uid": 101355,
  "tags": {
    "amenity": "place_of_worship",
    "denomination": "catholic",
    "name": "Ermita Mare De Déu Del Remei",
    "religion": "christian"
  }
},
{
  "type": "node",
  "id": 1235167156,
  "lat": 41.7107316,
  "lon": 0.9049486,
  "timestamp": "2017-02-21T10:15:34Z",
  "version": 3,
  "changeset": 46269722,
  "user": "DavidGM",
  "uid": 5357044,
  "tags": {
    "addr:city": "Linyola",
    "addr:postcode": "25240",
    "addr:street": "Plaça de l'Església",
    "amenity": "place_of_worship",
    "building": "church",
    "denomination": "catholic",
    "name": "Santa Maria",
    "religion": "christian",
    "website": "http://www.poblesdecatalunya.cat/element.php?e=4193",
    "wikidata": "Q18007616",
    "wikipedia": "ca:Santa Maria de Linyola"
  }
},
{
  "type": "node",
  "id": 1239164802,
  "lat": 41.7510989,
  "lon": 0.6605912,
  "timestamp": "2015-07-08T20:54:29Z",
  "version": 2,
  "changeset": 32505769,
  "user": "yopaseopor",
  "uid": 500572,
  "tags": {
    "amenity": "place_of_worship",
    "denomination": "catholic",
    "name": "Nostra Senyora de l'Assumpció",
    "religion": "christian"
  }
},
{
  "type": "node",
  "id": 1259962705,
  "lat": 41.1373028,
  "lon": 1.3474921,
  "timestamp": "2013-06-14T06:57:53Z",
  "version": 2,
  "changeset": 16546303,
  "user": "jmontane",
  "uid": 28773,
  "tags": {
    "amenity": "place_of_worship",
    "name": "Santa Maria de la Mora",
    "religion": "christian"
  }
},
{
  "type": "node",
  "id": 1295354224,
  "lat": 41.5921383,
  "lon": 1.8298144,
  "timestamp": "2019-09-10T19:12:23Z",
  "version": 3,
  "changeset": 74326157,
  "user": "quatreulls",
  "uid": 3350441,
  "tags": {
    "amenity": "place_of_worship",
    "denomination": "catholic",
    "historic": "ruins",
    "name": "Ermita de Santa Anna (ruines)",
    "religion": "christian"
  }
},
{
  "type": "node",
  "id": 1311875520,
  "lat": 41.1452257,
  "lon": 1.3588855,
  "timestamp": "2015-03-08T17:10:55Z",
  "version": 2,
  "changeset": 29333548,
  "user": "xbatlle",
  "uid": 355282,
  "tags": {
    "amenity": "place_of_worship",
    "name": "Santa Maria de Ferran",
    "religion": "christian"
  }
},
{
  "type": "node",
  "id": 1312334918,
  "lat": 41.5883016,
  "lon": 2.1793879,
  "timestamp": "2019-09-16T18:04:59Z",
  "version": 3,
  "changeset": 74545330,
  "user": "kapazao_import",
  "uid": 8770019,
  "tags": {
    "addr:city": "Palau-solità i Plegamans",
    "addr:postcode": "08184",
    "addr:street": "Plaça de Sant Genís",
    "amenity": "place_of_worship",
    "denomination": "catholic",
    "name": "Església de Sant Genís",
    "nohousenumber": "yes",
    "religion": "christian"
  }
},
{
  "type": "node",
  "id": 1323454978,
  "lat": 41.3145719,
  "lon": 1.9612561,
  "timestamp": "2017-11-11T12:31:06Z",
  "version": 6,
  "changeset": 53689507,
  "user": "KonfrareAlbert",
  "uid": 523522,
  "tags": {
    "amenity": "place_of_worship",
    "name": "Ermita de la Mare de Déu de Bruguers",
    "religion": "christian",
    "wikidata": "Q11919579",
    "wikipedia": "ca:Ermita de Bruguers"
  }
},
{
  "type": "node",
  "id": 1368742413,
  "lat": 42.4167593,
  "lon": 2.8286057,
  "timestamp": "2017-09-19T13:19:58Z",
  "version": 2,
  "changeset": 52178565,
  "user": "lanxana",
  "uid": 3735848,
  "tags": {
    "amenity": "place_of_worship",
    "ele": "350",
    "name": "Ermita de Santa Eugènia",
    "religion": "christian"
  }
},
{
  "type": "node",
  "id": 1368793829,
  "lat": 42.3699709,
  "lon": 3.0978643,
  "timestamp": "2011-07-21T09:29:19Z",
  "version": 1,
  "changeset": 8786569,
  "user": "wergeis",
  "uid": 81894,
  "tags": {
    "amenity": "place_of_worship",
    "ele": "112",
    "name": "Ermita de Sant Silvestre",
    "religion": "christian"
  }
},
{
  "type": "node",
  "id": 1374539386,
  "lat": 41.4225160,
  "lon": 2.1443603,
  "timestamp": "2011-07-26T11:34:31Z",
  "version": 2,
  "changeset": 8834820,
  "user": "sim6",
  "uid": 129718,
  "tags": {
    "amenity": "place_of_worship",
    "name": "Parròquia Sant Cebrià",
    "religion": "christian"
  }
},
{
  "type": "node",
  "id": 1386843656,
  "lat": 42.3414323,
  "lon": 1.4274708,
  "timestamp": "2017-12-31T16:03:04Z",
  "version": 4,
  "changeset": 55061353,
  "user": "pedrobv",
  "uid": 581863,
  "tags": {
    "amenity": "place_of_worship",
    "denomination": "catholic",
    "name": "Sant Vicenç",
    "religion": "christian"
  }
},
{
  "type": "node",
  "id": 1407397374,
  "lat": 41.9926880,
  "lon": 2.7959080,
  "timestamp": "2018-03-29T06:15:56Z",
  "version": 2,
  "changeset": 57621316,
  "user": "rusefkuma",
  "uid": 7637564,
  "tags": {
    "amenity": "place_of_worship",
    "denomination": "jehovahs_witness",
    "name": "Testimonis de Jehovà",
    "religion": "christian"
  }
},
{
  "type": "node",
  "id": 1417425307,
  "lat": 42.0279185,
  "lon": 2.0741005,
  "timestamp": "2018-11-30T23:23:03Z",
  "version": 2,
  "changeset": 65060626,
  "user": "idrissi",
  "uid": 3436983,
  "tags": {
    "amenity": "place_of_worship",
    "denomination": "catholic",
    "name": "Sant Martí",
    "religion": "christian"
  }
},
{
  "type": "node",
  "id": 1423122773,
  "lat": 42.3440692,
  "lon": 1.4856449,
  "timestamp": "2011-09-04T15:12:35Z",
  "version": 1,
  "changeset": 9209830,
  "user": "Pere Pujal",
  "uid": 235264,
  "tags": {
    "amenity": "place_of_worship",
    "name": "Ermita de Sant Antoni",
    "religion": "christian"
  }
},
{
  "type": "node",
  "id": 1423885005,
  "lat": 41.5727900,
  "lon": 2.4587400,
  "timestamp": "2018-10-24T09:55:42Z",
  "version": 2,
  "changeset": 63825592,
  "user": "Jesús Gómez",
  "uid": 6389,
  "tags": {
    "amenity": "place_of_worship",
    "denomination": "catholic",
    "name": "Sant Martí de Mata",
    "religion": "christian",
    "wikidata": "Q28058801"
  }
},
{
  "type": "node",
  "id": 1423885009,
  "lat": 41.5689800,
  "lon": 2.4640700,
  "timestamp": "2011-09-05T10:21:43Z",
  "version": 1,
  "changeset": 9216280,
  "user": "Joan Bisbe",
  "uid": 513757,
  "tags": {
    "amenity": "place_of_worship",
    "denomination": "catholic",
    "name": "Sant Miquel de Mata",
    "religion": "christian"
  }
},
{
  "type": "node",
  "id": 1423899453,
  "lat": 41.5647544,
  "lon": 2.4464556,
  "timestamp": "2011-09-05T16:14:08Z",
  "version": 2,
  "changeset": 9219190,
  "user": "Joan Bisbe",
  "uid": 513757,
  "tags": {
    "amenity": "place_of_worship",
    "denomination": "catholic",
    "name": "Ermita de Sta, Rita",
    "religion": "christian"
  }
},
{
  "type": "node",
  "id": 1424288892,
  "lat": 42.0672296,
  "lon": 2.6876798,
  "timestamp": "2013-08-31T14:49:55Z",
  "version": 2,
  "changeset": 17604670,
  "user": "pitort",
  "uid": 469238,
  "tags": {
    "amenity": "place_of_worship",
    "denomination": "catholic",
    "name": "Santa Maria de Rocacorba",
    "religion": "christian"
  }
},
{
  "type": "node",
  "id": 1435002387,
  "lat": 42.1632402,
  "lon": 1.8847136,
  "timestamp": "2012-10-07T10:43:19Z",
  "version": 3,
  "changeset": 13395998,
  "user": "EliziR",
  "uid": 605366,
  "tags": {
    "amenity": "place_of_worship",
    "denomination": "catholic",
    "name": "Santuari de Lourdes de la Nou",
    "religion": "christian"
  }
},
{
  "type": "node",
  "id": 1450522336,
  "lat": 40.8238606,
  "lon": 0.5359732,
  "timestamp": "2018-05-07T12:12:02Z",
  "version": 2,
  "changeset": 58756776,
  "user": "Scamarla",
  "uid": 8204249,
  "tags": {
    "amenity": "place_of_worship",
    "name": "Ermita de la Verge de la Roca",
    "religion": "christian"
  }
},
{
  "type": "node",
  "id": 1450586176,
  "lat": 40.8174925,
  "lon": 0.5425969,
  "timestamp": "2018-10-24T11:02:10Z",
  "version": 4,
  "changeset": 63827858,
  "user": "Jesús Gómez",
  "uid": 6389,
  "tags": {
    "amenity": "place_of_worship",
    "name": "Ermita de Sant Josep de la Muntanya",
    "religion": "christian",
    "wikidata": "Q18006951"
  }
},
{
  "type": "node",
  "id": 1450644899,
  "lat": 40.8131672,
  "lon": 0.5510997,
  "timestamp": "2011-10-01T12:25:46Z",
  "version": 1,
  "changeset": 9441761,
  "user": "paparraco",
  "uid": 437804,
  "tags": {
    "amenity": "place_of_worship",
    "name": "Ermita de Mig Camí",
    "religion": "christian"
  }
},
{
  "type": "node",
  "id": 1450666727,
  "lat": 40.8162613,
  "lon": 0.5708115,
  "timestamp": "2018-10-24T11:02:02Z",
  "version": 2,
  "changeset": 63827858,
  "user": "Jesús Gómez",
  "uid": 6389,
  "tags": {
    "amenity": "place_of_worship",
    "name": "Ermita del Coll de l'Alba",
    "religion": "christian",
    "wikidata": "Q18003993"
  }
},
{
  "type": "node",
  "id": 1491216024,
  "lat": 41.6441507,
  "lon": 1.5698232,
  "timestamp": "2017-09-25T03:25:29Z",
  "version": 4,
  "changeset": 52343157,
  "user": "nyuriks",
  "uid": 339581,
  "tags": {
    "amenity": "place_of_worship",
    "denomination": "catholic",
    "name": "Santa Maria de Rubió",
    "religion": "christian",
    "wikidata": "Q11920555",
    "wikipedia": "ca:Església de Santa Maria de Rubió"
  }
},
{
  "type": "node",
  "id": 1540720875,
  "lat": 41.9740890,
  "lon": 2.6405228,
  "timestamp": "2018-05-30T18:37:27Z",
  "version": 3,
  "changeset": 59406928,
  "user": "Xevi",
  "uid": 100124,
  "tags": {
    "amenity": "place_of_worship",
    "name": "Sant Pere Màrtir",
    "religion": "christian"
  }
},
{
  "type": "node",
  "id": 1544263289,
  "lat": 40.8446586,
  "lon": 0.3538960,
  "timestamp": "2011-12-13T14:18:55Z",
  "version": 1,
  "changeset": 10107932,
  "user": "sim6",
  "uid": 129718,
  "tags": {
    "amenity": "place_of_worship",
    "name": "Ermita de Santa Magdalena",
    "religion": "christian"
  }
},
{
  "type": "node",
  "id": 1582706864,
  "lat": 41.2415572,
  "lon": 1.8103101,
  "timestamp": "2019-10-30T11:26:23Z",
  "version": 3,
  "changeset": 76388956,
  "user": "ramonz",
  "uid": 2047207,
  "tags": {
    "amenity": "place_of_worship",
    "denomination": "catholic",
    "name": "Sant Joan",
    "religion": "christian"
  }
},
{
  "type": "node",
  "id": 1609416973,
  "lat": 41.5114512,
  "lon": 1.9315692,
  "timestamp": "2012-01-28T23:05:54Z",
  "version": 1,
  "changeset": 10525885,
  "user": "ottokar55",
  "uid": 101355,
  "tags": {
    "amenity": "place_of_worship",
    "denomination": "catholic",
    "name": "Santa Maria de Vilalba",
    "religion": "christian"
  }
},
{
  "type": "node",
  "id": 1622721929,
  "lat": 41.7177046,
  "lon": 0.7631511,
  "timestamp": "2018-10-24T12:01:19Z",
  "version": 3,
  "changeset": 63829505,
  "user": "Jesús Gómez",
  "uid": 6389,
  "tags": {
    "amenity": "place_of_worship",
    "denomination": "catholic",
    "name": "Santa Maria",
    "religion": "christian",
    "wikidata": "Q47171141"
  }
},
{
  "type": "node",
  "id": 1628346489,
  "lat": 41.9296431,
  "lon": 2.2555956,
  "timestamp": "2014-10-25T23:22:58Z",
  "version": 2,
  "changeset": 26332238,
  "user": "fermi_t",
  "uid": 601281,
  "tags": {
    "amenity": "place_of_worship",
    "name": "Església de Sant Felip",
    "religion": "christian"
  }
},
{
  "type": "node",
  "id": 1632807327,
  "lat": 41.5250814,
  "lon": 2.2135483,
  "timestamp": "2019-12-04T11:18:48Z",
  "version": 4,
  "changeset": 77931158,
  "user": "EliziR",
  "uid": 605366,
  "tags": {
    "amenity": "place_of_worship",
    "denomination": "sunni",
    "name": "Mesquita As-Salam",
    "name:ca": "Mesquita As-Salam",
    "name:es": "Mezquita As-Salam",
    "religion": "muslim"
  }
},
{
  "type": "node",
  "id": 1633330430,
  "lat": 41.5873771,
  "lon": 1.8272767,
  "timestamp": "2012-05-06T23:02:14Z",
  "version": 2,
  "changeset": 11524066,
  "user": "jenda",
  "uid": 2966,
  "tags": {
    "amenity": "place_of_worship",
    "denomination": "catholic",
    "name": "Sant Onofre",
    "religion": "christian"
  }
},
{
  "type": "node",
  "id": 1633330447,
  "lat": 41.5888982,
  "lon": 1.8273773,
  "timestamp": "2019-10-02T06:27:03Z",
  "version": 3,
  "changeset": 75178543,
  "user": "EliziR",
  "uid": 605366,
  "tags": {
    "amenity": "place_of_worship",
    "denomination": "catholic",
    "name": "Santa Magdalena",
    "religion": "christian",
    "ruins": "yes"
  }
},
{
  "type": "node",
  "id": 1638955181,
  "lat": 41.9133411,
  "lon": 2.2278583,
  "timestamp": "2012-03-24T15:28:51Z",
  "version": 3,
  "changeset": 11085573,
  "user": "cgu66",
  "uid": 152289,
  "tags": {
    "amenity": "place_of_worship",
    "denomination": "catholic",
    "name": "Esglesia de Sant Martí",
    "religion": "christian"
  }
},
{
  "type": "node",
  "id": 1640460073,
  "lat": 41.8778134,
  "lon": 2.9762516,
  "timestamp": "2012-12-29T12:30:32Z",
  "version": 2,
  "changeset": 14449858,
  "user": "Gaspar Segues",
  "uid": 346762,
  "tags": {
    "amenity": "place_of_worship",
    "denomination": "catholic",
    "religion": "christian"
  }
},
{
  "type": "node",
  "id": 1645542837,
  "lat": 41.3797927,
  "lon": 2.1883932,
  "timestamp": "2013-04-11T15:32:15Z",
  "version": 4,
  "changeset": 15691326,
  "user": "EliziR",
  "uid": 605366,
  "tags": {
    "amenity": "place_of_worship",
    "denomination": "catholic",
    "name": "Sant Miguel del Port",
    "religion": "christian"
  }
},
{
  "type": "node",
  "id": 1647165580,
  "lat": 41.4949563,
  "lon": 1.0033556,
  "timestamp": "2012-02-25T16:03:41Z",
  "version": 2,
  "changeset": 10789113,
  "user": "pitort",
  "uid": 469238,
  "tags": {
    "amenity": "place_of_worship",
    "name": "Immaculada Concepció",
    "religion": "christian"
  }
},
{
  "type": "node",
  "id": 1673204964,
  "lat": 41.3659254,
  "lon": 2.0713577,
  "timestamp": "2012-03-13T11:01:29Z",
  "version": 1,
  "changeset": 10965246,
  "user": "Cristina Lladó",
  "uid": 605479,
  "tags": {
    "amenity": "place_of_worship",
    "name": "Església Evangèlica de Sant Joan Despí",
    "religion": "christian"
  }
},
{
  "type": "node",
  "id": 1673204965,
  "lat": 41.3662195,
  "lon": 2.0710088,
  "timestamp": "2012-03-13T11:01:29Z",
  "version": 1,
  "changeset": 10965246,
  "user": "Cristina Lladó",
  "uid": 605479,
  "tags": {
    "amenity": "place_of_worship",
    "name": "Comunidad Islámica de Sant Joan Despí",
    "religion": "muslim"
  }
},
{
  "type": "node",
  "id": 1674038922,
  "lat": 41.0761043,
  "lon": 1.1298636,
  "timestamp": "2018-10-24T11:02:30Z",
  "version": 5,
  "changeset": 63827858,
  "user": "Jesús Gómez",
  "uid": 6389,
  "tags": {
    "amenity": "place_of_worship",
    "denomination": "catholic",
    "name": "Santa Maria del Mar",
    "religion": "christian",
    "wikidata": "Q22893601"
  }
},
{
  "type": "node",
  "id": 1707735034,
  "lat": 41.1262761,
  "lon": 0.8003650,
  "timestamp": "2020-01-13T15:52:36Z",
  "version": 2,
  "changeset": 79523283,
  "user": "Toni Serra",
  "uid": 3859465,
  "tags": {
    "amenity": "place_of_worship",
    "building": "church",
    "denomination": "roman_catholic",
    "name": "Santa Maria",
    "religion": "christian"
  }
},
{
  "type": "node",
  "id": 1708912189,
  "lat": 41.5275815,
  "lon": 2.0372079,
  "timestamp": "2014-07-05T15:00:32Z",
  "version": 3,
  "changeset": 23968236,
  "user": "pitort",
  "uid": 469238,
  "tags": {
    "amenity": "place_of_worship",
    "denomination": "catholic",
    "name": "Mare de Déu del Roser",
    "religion": "christian"
  }
},
{
  "type": "node",
  "id": 1718413115,
  "lat": 41.3340832,
  "lon": 1.5929927,
  "timestamp": "2018-11-19T16:15:45Z",
  "version": 2,
  "changeset": 64663545,
  "user": "ramonz",
  "uid": 2047207,
  "tags": {
    "amenity": "place_of_worship",
    "name": "Ermita de Sant Sadurní"
  }
},
{
  "type": "node",
  "id": 1725434113,
  "lat": 41.8543423,
  "lon": 2.9862026,
  "timestamp": "2012-12-29T12:30:32Z",
  "version": 2,
  "changeset": 14449858,
  "user": "Gaspar Segues",
  "uid": 346762,
  "tags": {
    "amenity": "place_of_worship",
    "denomination": "catholic",
    "religion": "christian"
  }
},
{
  "type": "node",
  "id": 1742542506,
  "lat": 41.9781986,
  "lon": 3.1607816,
  "timestamp": "2016-05-31T18:32:04Z",
  "version": 3,
  "changeset": 39694975,
  "user": "hubeat",
  "uid": 457265,
  "tags": {
    "amenity": "place_of_worship",
    "denomination": "catholic",
    "name": "San Fructuos",
    "religion": "christian"
  }
},
{
  "type": "node",
  "id": 1765294214,
  "lat": 41.7918070,
  "lon": 2.9822113,
  "timestamp": "2012-05-25T14:34:34Z",
  "version": 1,
  "changeset": 11699119,
  "user": "prodrigestivill",
  "uid": 603654,
  "tags": {
    "amenity": "place_of_worship",
    "name": "Ermita de Pedralta",
    "religion": "christian"
  }
},
{
  "type": "node",
  "id": 1766633302,
  "lat": 41.5187400,
  "lon": 1.2178100,
  "timestamp": "2018-10-24T11:01:24Z",
  "version": 2,
  "changeset": 63827858,
  "user": "Jesús Gómez",
  "uid": 6389,
  "tags": {
    "amenity": "place_of_worship",
    "denomination": "catholic",
    "historic": "yes",
    "name": "Església de la Nativitat de la Verge Maria de la Sala",
    "ref": "IPA-12932",
    "religion": "christian",
    "source": "http://ca.wikipedia.org/wiki/Llista_de_monuments_de_la_Conca_de_Barberà",
    "wikidata": "Q17389617"
  }
},
{
  "type": "node",
  "id": 1766633317,
  "lat": 41.5196080,
  "lon": 1.2046680,
  "timestamp": "2018-10-24T11:01:25Z",
  "version": 2,
  "changeset": 63827858,
  "user": "Jesús Gómez",
  "uid": 6389,
  "tags": {
    "amenity": "place_of_worship",
    "denomination": "catholic",
    "historic": "yes",
    "name": "Església parroquial de l'Assumpció de la Glorieta",
    "ref": "IPA-12929",
    "religion": "christian",
    "source": "http://ca.wikipedia.org/wiki/Llista_de_monuments_de_la_Conca_de_Barberà",
    "wikidata": "Q17389644"
  }
},
{
  "type": "node",
  "id": 1766633321,
  "lat": 41.5438810,
  "lon": 1.2656070,
  "timestamp": "2012-05-26T20:40:23Z",
  "version": 1,
  "changeset": 11710221,
  "user": "tongro",
  "uid": 240473,
  "tags": {
    "amenity": "place_of_worship",
    "denomination": "catholic",
    "historic": "yes",
    "name": "Església parroquial de l'Assumpta de Segura",
    "ref": "IPA-13140",
    "religion": "christian",
    "source": "http://ca.wikipedia.org/wiki/Llista_de_monuments_de_la_Conca_de_Barberà"
  }
},
{
  "type": "node",
  "id": 1781513158,
  "lat": 40.7857008,
  "lon": 0.5301252,
  "timestamp": "2012-06-09T12:27:20Z",
  "version": 1,
  "changeset": 11844405,
  "user": "paparraco",
  "uid": 437804,
  "tags": {
    "amenity": "place_of_worship",
    "name": "Ermita de La Petja",
    "religion": "christian"
  }
},
{
  "type": "node",
  "id": 1787623412,
  "lat": 41.2717865,
  "lon": 1.4403849,
  "timestamp": "2018-11-25T22:34:19Z",
  "version": 2,
  "changeset": 64878817,
  "user": "Jose Luis Infante",
  "uid": 126203,
  "tags": {
    "amenity": "place_of_worship",
    "name": "Ermita de Santa Cristina",
    "religion": "christian"
  }
},
{
  "type": "node",
  "id": 1796255472,
  "lat": 40.9063609,
  "lon": 0.4909031,
  "timestamp": "2013-06-09T17:31:32Z",
  "version": 2,
  "changeset": 16485059,
  "user": "ctorta",
  "uid": 969388,
  "tags": {
    "amenity": "place_of_worship",
    "name": "Sant Martí",
    "religion": "christian"
  }
},
{
  "type": "node",
  "id": 1799341275,
  "lat": 41.8909798,
  "lon": 2.8303929,
  "timestamp": "2020-01-16T10:41:54Z",
  "version": 2,
  "changeset": 79645864,
  "user": "pparescasellas",
  "uid": 10641835,
  "tags": {
    "amenity": "place_of_worship",
    "name": "Esglèsia de Campllong",
    "name:ca": "Església de Campllong",
    "religion": "christian"
  }
},
{
  "type": "node",
  "id": 1808977739,
  "lat": 41.3940124,
  "lon": 0.7198325,
  "timestamp": "2012-07-01T16:18:57Z",
  "version": 1,
  "changeset": 12078090,
  "user": "pitort",
  "uid": 469238,
  "tags": {
    "amenity": "place_of_worship",
    "denomination": "catholic",
    "name": "Sant Joan Evangelista",
    "religion": "christian"
  }
},
{
  "type": "node",
  "id": 1809483244,
  "lat": 41.4081932,
  "lon": 2.0241899,
  "timestamp": "2019-05-21T08:03:55Z",
  "version": 5,
  "changeset": 70467632,
  "user": "EliziR",
  "uid": 605366,
  "tags": {
    "amenity": "place_of_worship",
    "building": "church",
    "denomination": "evangelical",
    "name": "Església Evangèlica",
    "religion": "christian"
  }
},
{
  "type": "node",
  "id": 1820903679,
  "lat": 41.5602387,
  "lon": 2.0937718,
  "timestamp": "2012-07-11T13:57:04Z",
  "version": 2,
  "changeset": 12186325,
  "user": "unique422",
  "uid": 589643,
  "tags": {
    "amenity": "place_of_worship",
    "denomination": "catholic",
    "name": "Parroquia Sant Josep",
    "religion": "christian"
  }
},
{
  "type": "node",
  "id": 1828915553,
  "lat": 41.6150930,
  "lon": 2.2905482,
  "timestamp": "2012-07-17T18:11:59Z",
  "version": 1,
  "changeset": 12270057,
  "user": "Emepunto",
  "uid": 502023,
  "tags": {
    "amenity": "place_of_worship",
    "name": "Parròquia de Mare de Déu de Montserrat",
    "religion": "christian"
  }
},
{
  "type": "node",
  "id": 1829539513,
  "lat": 41.4734555,
  "lon": 1.9185547,
  "timestamp": "2012-07-18T09:57:30Z",
  "version": 1,
  "changeset": 12276993,
  "user": "macondo67",
  "uid": 707402,
  "tags": {
    "amenity": "place_of_worship",
    "denomination": "catholic",
    "name": "Esglèsia de Crist Salvador",
    "religion": "christian"
  }
},
{
  "type": "node",
  "id": 1863201412,
  "lat": 41.6988724,
  "lon": 2.1985427,
  "timestamp": "2019-06-16T10:23:03Z",
  "version": 4,
  "changeset": 71297757,
  "user": "wvdp",
  "uid": 436419,
  "tags": {
    "amenity": "place_of_worship",
    "denomination": "catholic",
    "name": "Sant Vicenç",
    "religion": "christian",
    "wikidata": "Q11947465"
  }
},
{
  "type": "node",
  "id": 1874249798,
  "lat": 42.3971005,
  "lon": 2.1534764,
  "timestamp": "2019-09-17T18:25:27Z",
  "version": 2,
  "changeset": 74594703,
  "user": "Polar-Trek",
  "uid": 10287025,
  "tags": {
    "amenity": "place_of_worship",
    "denomination": "catholic",
    "name": "Santuari de Núria",
    "name:ca": "Santuari Vall de Núria",
    "religion": "christian"
  }
},
{
  "type": "node",
  "id": 1885423574,
  "lat": 42.4170519,
  "lon": 1.7928387,
  "timestamp": "2012-08-27T15:28:26Z",
  "version": 1,
  "changeset": 12880120,
  "user": "familiapicarol",
  "uid": 593367,
  "tags": {
    "amenity": "place_of_worship",
    "religion": "christian"
  }
},
{
  "type": "node",
  "id": 1891943317,
  "lat": 41.2042513,
  "lon": 1.3600838,
  "timestamp": "2012-08-31T17:54:06Z",
  "version": 1,
  "changeset": 12933995,
  "user": "juanvvc",
  "uid": 27317,
  "tags": {
    "amenity": "place_of_worship",
    "religion": "christian"
  }
},
{
  "type": "node",
  "id": 1897823487,
  "lat": 41.3985284,
  "lon": 2.0069446,
  "timestamp": "2016-01-20T19:59:31Z",
  "version": 3,
  "changeset": 36708495,
  "user": "Luiyo",
  "uid": 316694,
  "tags": {
    "amenity": "place_of_worship",
    "building": "church",
    "denomination": "evangelical",
    "name": "Esglèsia Evangelista",
    "religion": "christian"
  }
},
{
  "type": "node",
  "id": 1909712368,
  "lat": 41.4760582,
  "lon": 1.6092813,
  "timestamp": "2018-10-24T09:54:45Z",
  "version": 2,
  "changeset": 63825592,
  "user": "Jesús Gómez",
  "uid": 6389,
  "tags": {
    "amenity": "place_of_worship",
    "denomination": "catholic",
    "name": "Sant Joan de Conilles",
    "religion": "christian",
    "wikidata": "Q20901416"
  }
},
{
  "type": "node",
  "id": 1915391353,
  "lat": 41.6685760,
  "lon": 1.2718978,
  "timestamp": "2018-09-13T16:39:01Z",
  "version": 7,
  "changeset": 62557857,
  "user": "MapperCat",
  "uid": 654890,
  "tags": {
    "amenity": "place_of_worship",
    "building": "church",
    "denomination": "catholic",
    "name": "Sant Agustí",
    "religion": "christian"
  }
},
{
  "type": "node",
  "id": 1918611837,
  "lat": 41.6488542,
  "lon": 1.2244585,
  "timestamp": "2015-10-24T17:38:26Z",
  "version": 3,
  "changeset": 34845395,
  "user": "pitort",
  "uid": 469238,
  "tags": {
    "amenity": "place_of_worship",
    "denomination": "catholic",
    "name": "Sant Salvador",
    "religion": "christian"
  }
},
{
  "type": "node",
  "id": 1923326119,
  "lat": 42.1126964,
  "lon": 2.7784456,
  "timestamp": "2012-09-23T14:42:15Z",
  "version": 2,
  "changeset": 13220934,
  "user": "Xevi",
  "uid": 100124,
  "tags": {
    "amenity": "place_of_worship",
    "denomination": "evangelical",
    "name": "Centre Evangelista",
    "religion": "christian"
  }
},
{
  "type": "node",
  "id": 1937323687,
  "lat": 41.2547233,
  "lon": 1.5006643,
  "timestamp": "2015-02-08T23:27:33Z",
  "version": 4,
  "changeset": 28717844,
  "user": "EliziR",
  "uid": 605366,
  "tags": {
    "amenity": "place_of_worship",
    "denomination": "catholic",
    "name": "Església del Sagrat Cor",
    "religion": "christian"
  }
},
{
  "type": "node",
  "id": 1938744333,
  "lat": 41.2460974,
  "lon": 1.4863944,
  "timestamp": "2014-07-27T16:08:11Z",
  "version": 3,
  "changeset": 24386962,
  "user": "jconstanti",
  "uid": 531165,
  "tags": {
    "amenity": "place_of_worship",
    "name": "Església d'Albinyana"
  }
},
{
  "type": "node",
  "id": 1966818542,
  "lat": 41.3098350,
  "lon": 1.6029347,
  "timestamp": "2019-11-25T09:49:15Z",
  "version": 2,
  "changeset": 77511973,
  "user": "altillu",
  "uid": 566378,
  "tags": {
    "amenity": "place_of_worship",
    "name": "Esglesia",
    "religion": "christian"
  }
},
{
  "type": "node",
  "id": 1967209289,
  "lat": 40.7060308,
  "lon": 0.5776133,
  "timestamp": "2018-10-24T11:02:02Z",
  "version": 3,
  "changeset": 63827858,
  "user": "Jesús Gómez",
  "uid": 6389,
  "tags": {
    "amenity": "place_of_worship",
    "name": "Església del Sagrat Cor",
    "religion": "christian",
    "wikidata": "Q18004027"
  }
},
{
  "type": "node",
  "id": 1967209291,
  "lat": 40.7137121,
  "lon": 0.5755319,
  "timestamp": "2012-10-15T18:06:57Z",
  "version": 1,
  "changeset": 13509187,
  "user": "ctorta",
  "uid": 969388,
  "tags": {
    "amenity": "place_of_worship",
    "name": "Església de Sant Josep",
    "religion": "christian"
  }
},
{
  "type": "node",
  "id": 1968326715,
  "lat": 41.3031934,
  "lon": 1.6315630,
  "timestamp": "2018-10-24T09:54:37Z",
  "version": 3,
  "changeset": 63825592,
  "user": "Jesús Gómez",
  "uid": 6389,
  "tags": {
    "amenity": "place_of_worship",
    "name": "Santa Maria de Muntanyans",
    "religion": "christian",
    "wikidata": "Q20888315"
  }
},
{
  "type": "node",
  "id": 1975410601,
  "lat": 41.1600089,
  "lon": 1.1066811,
  "timestamp": "2018-08-18T13:53:33Z",
  "version": 2,
  "changeset": 61771104,
  "user": "Jordi MF",
  "uid": 8278438,
  "tags": {
    "amenity": "place_of_worship",
    "name": "Parròquia de Crist Reis de Reus",
    "religion": "christian"
  }
},
{
  "type": "node",
  "id": 1976697413,
  "lat": 42.0860722,
  "lon": 0.8410852,
  "timestamp": "2012-10-21T15:33:17Z",
  "version": 1,
  "changeset": 13581507,
  "user": "pitort",
  "uid": 469238,
  "tags": {
    "amenity": "place_of_worship",
    "denomination": "catholic",
    "name": "Sant Salvador",
    "religion": "christian"
  }
},
{
  "type": "node",
  "id": 1980079414,
  "lat": 41.8482406,
  "lon": 3.1071861,
  "timestamp": "2012-10-23T21:59:00Z",
  "version": 1,
  "changeset": 13610820,
  "user": "HFeierabend",
  "uid": 305567,
  "tags": {
    "amenity": "place_of_worship",
    "name": "Parroquia de Sant Antoni de Calonge",
    "religion": "christian"
  }
},
{
  "type": "node",
  "id": 1989607265,
  "lat": 41.9090232,
  "lon": 1.6957583,
  "timestamp": "2012-10-30T12:21:31Z",
  "version": 1,
  "changeset": 13685647,
  "user": "botxi",
  "uid": 1014642,
  "tags": {
    "amenity": "place_of_worship",
    "name": "Església Sant Ramon Nonat",
    "religion": "christian"
  }
},
{
  "type": "node",
  "id": 2030642381,
  "lat": 41.6776762,
  "lon": 2.2216898,
  "timestamp": "2019-06-16T10:23:04Z",
  "version": 2,
  "changeset": 71297757,
  "user": "wvdp",
  "uid": 436419,
  "tags": {
    "amenity": "place_of_worship",
    "name": "Parròquia de Sant Pere de Bigues",
    "religion": "christian",
    "wikidata": "Q18007227"
  }
},
{
  "type": "node",
  "id": 2039896168,
  "lat": 41.5724235,
  "lon": 2.5271947,
  "timestamp": "2017-01-21T11:42:42Z",
  "version": 3,
  "changeset": 45347878,
  "user": "Лёшечка",
  "uid": 3126852,
  "tags": {
    "amenity": "place_of_worship",
    "denomination": "catholic",
    "name": "Parròquia de Santa Maria",
    "religion": "christian"
  }
},
{
  "type": "node",
  "id": 2054885867,
  "lat": 41.8624100,
  "lon": 3.0730709,
  "timestamp": "2013-05-12T15:55:44Z",
  "version": 2,
  "changeset": 16097749,
  "user": "EliziR",
  "uid": 605366,
  "tags": {
    "amenity": "place_of_worship",
    "name": "Sant Martí",
    "religion": "christian"
  }
},
{
  "type": "node",
  "id": 2055303712,
  "lat": 41.2066908,
  "lon": 0.9638699,
  "timestamp": "2012-12-07T23:19:00Z",
  "version": 1,
  "changeset": 14194380,
  "user": "harmankardon",
  "uid": 618256,
  "tags": {
    "amenity": "place_of_worship",
    "denomination": "catholic",
    "name": "Sant Antoni de Pàdua",
    "religion": "christian"
  }
},
{
  "type": "node",
  "id": 2056310024,
  "lat": 41.8084818,
  "lon": 1.0798281,
  "timestamp": "2012-12-08T17:14:30Z",
  "version": 1,
  "changeset": 14202858,
  "user": "pitort",
  "uid": 469238,
  "tags": {
    "amenity": "place_of_worship",
    "denomination": "catholic",
    "name": "Sant Llorenç",
    "religion": "christian"
  }
},
{
  "type": "node",
  "id": 2056465882,
  "lat": 41.8409329,
  "lon": 0.9889503,
  "timestamp": "2012-12-08T18:26:52Z",
  "version": 1,
  "changeset": 14203774,
  "user": "pitort",
  "uid": 469238,
  "tags": {
    "amenity": "place_of_worship",
    "denomination": "catholic",
    "name": "Sant Salvador",
    "religion": "christian"
  }
},
{
  "type": "node",
  "id": 2062480599,
  "lat": 41.2520664,
  "lon": 1.6017929,
  "timestamp": "2012-12-11T23:55:40Z",
  "version": 1,
  "changeset": 14244606,
  "user": "yopaseopor",
  "uid": 500572,
  "tags": {
    "amenity": "place_of_worship",
    "name": "cementiri"
  }
},
{
  "type": "node",
  "id": 2066877870,
  "lat": 41.5600059,
  "lon": 1.1153863,
  "timestamp": "2012-12-14T18:30:51Z",
  "version": 1,
  "changeset": 14274471,
  "user": "pitort",
  "uid": 469238,
  "tags": {
    "amenity": "place_of_worship",
    "denomination": "catholic",
    "name": "Sant Jaume",
    "religion": "christian"
  }
},
{
  "type": "node",
  "id": 2068349857,
  "lat": 41.5615511,
  "lon": 1.1403726,
  "timestamp": "2018-01-06T11:35:16Z",
  "version": 3,
  "changeset": 55208888,
  "user": "pedrobv",
  "uid": 581863,
  "tags": {
    "amenity": "place_of_worship",
    "denomination": "catholic",
    "name": "Sant Miquel",
    "religion": "christian"
  }
},
{
  "type": "node",
  "id": 2068537828,
  "lat": 41.5593047,
  "lon": 1.0546894,
  "timestamp": "2019-10-03T22:26:40Z",
  "version": 2,
  "changeset": 75254596,
  "user": "nilamb",
  "uid": 10347224,
  "tags": {
    "amenity": "place_of_worship",
    "denomination": "catholic",
    "name": "Església de Sant Martí",
    "religion": "christian"
  }
},
{
  "type": "node",
  "id": 2068537829,
  "lat": 41.5502001,
  "lon": 1.0401112,
  "timestamp": "2018-01-06T11:35:16Z",
  "version": 3,
  "changeset": 55208888,
  "user": "pedrobv",
  "uid": 581863,
  "tags": {
    "amenity": "place_of_worship",
    "denomination": "catholic",
    "name": "Sant Pere",
    "religion": "christian"
  }
},
{
  "type": "node",
  "id": 2068537830,
  "lat": 41.5506673,
  "lon": 1.0392121,
  "timestamp": "2012-12-15T16:50:18Z",
  "version": 1,
  "changeset": 14283081,
  "user": "pitort",
  "uid": 469238,
  "tags": {
    "amenity": "place_of_worship",
    "denomination": "catholic",
    "name": "Santa Maria",
    "religion": "christian"
  }
},
{
  "type": "node",
  "id": 2068633977,
  "lat": 41.4938374,
  "lon": 1.1138478,
  "timestamp": "2012-12-15T18:21:16Z",
  "version": 1,
  "changeset": 14284296,
  "user": "pitort",
  "uid": 469238,
  "tags": {
    "amenity": "place_of_worship",
    "denomination": "catholic",
    "name": "Sant Andreu i Sant Roc",
    "religion": "christian"
  }
},
{
  "type": "node",
  "id": 2069858213,
  "lat": 41.5001205,
  "lon": 1.0748647,
  "timestamp": "2012-12-16T14:59:47Z",
  "version": 1,
  "changeset": 14294305,
  "user": "pitort",
  "uid": 469238,
  "tags": {
    "amenity": "place_of_worship",
    "denomination": "catholic",
    "name": "Santa Maria",
    "religion": "christian"
  }
},
{
  "type": "node",
  "id": 2070011324,
  "lat": 41.4774899,
  "lon": 1.3877209,
  "timestamp": "2012-12-16T16:43:46Z",
  "version": 1,
  "changeset": 14295669,
  "user": "pitort",
  "uid": 469238,
  "tags": {
    "amenity": "place_of_worship",
    "denomination": "catholic",
    "name": "Santa Maria",
    "religion": "christian"
  }
},
{
  "type": "node",
  "id": 2070098435,
  "lat": 41.4845494,
  "lon": 1.4483887,
  "timestamp": "2017-09-25T03:25:42Z",
  "version": 2,
  "changeset": 52343157,
  "user": "nyuriks",
  "uid": 339581,
  "tags": {
    "amenity": "place_of_worship",
    "denomination": "catholic",
    "name": "Sant Magí de Brufaganya",
    "religion": "christian",
    "wikidata": "Q11947181",
    "wikipedia": "ca:Sant Magí de Brufaganya"
  }
},
{
  "type": "node",
  "id": 2077266430,
  "lat": 41.5991500,
  "lon": 2.0279330,
  "timestamp": "2017-12-25T10:02:13Z",
  "version": 2,
  "changeset": 54903322,
  "user": "pedrobv",
  "uid": 581863,
  "tags": {
    "amenity": "place_of_worship",
    "denomination": "catholic",
    "name": "Sant Joan",
    "name:es": "San Juan",
    "religion": "christian"
  }
},
{
  "type": "node",
  "id": 2077266433,
  "lat": 41.5534898,
  "lon": 2.0118630,
  "timestamp": "2017-12-31T16:45:31Z",
  "version": 3,
  "changeset": 55062203,
  "user": "pedrobv",
  "uid": 581863,
  "tags": {
    "amenity": "place_of_worship",
    "denomination": "catholic",
    "name": "Sant Valentí",
    "religion": "christian"
  }
},
{
  "type": "node",
  "id": 2077307611,
  "lat": 41.4835720,
  "lon": 1.5492932,
  "timestamp": "2012-12-21T10:27:26Z",
  "version": 1,
  "changeset": 14353131,
  "user": "pitort",
  "uid": 469238,
  "tags": {
    "amenity": "place_of_worship",
    "denomination": "catholic",
    "name": "Sant Antoni",
    "religion": "christian"
  }
},
{
  "type": "node",
  "id": 2077581606,
  "lat": 41.6870110,
  "lon": 1.6035442,
  "timestamp": "2018-10-24T09:51:14Z",
  "version": 2,
  "changeset": 63825592,
  "user": "Jesús Gómez",
  "uid": 6389,
  "tags": {
    "amenity": "place_of_worship",
    "denomination": "catholic",
    "name": "Sant Martí de Maçana",
    "religion": "christian",
    "wikidata": "Q11947206"
  }
},
{
  "type": "node",
  "id": 2077632382,
  "lat": 41.4699655,
  "lon": 1.0875853,
  "timestamp": "2019-04-27T13:42:12Z",
  "version": 2,
  "changeset": 69640028,
  "user": "ottokar55",
  "uid": 101355,
  "tags": {
    "amenity": "place_of_worship",
    "denomination": "catholic",
    "name": "Santa Maria",
    "religion": "christian"
  }
},
{
  "type": "node",
  "id": 2077688926,
  "lat": 41.5614147,
  "lon": 1.0174726,
  "timestamp": "2012-12-21T17:02:56Z",
  "version": 1,
  "changeset": 14356847,
  "user": "pitort",
  "uid": 469238,
  "tags": {
    "amenity": "place_of_worship",
    "denomination": "catholic",
    "name": "Sant Jaume",
    "religion": "christian"
  }
},
{
  "type": "node",
  "id": 2078694327,
  "lat": 41.7594901,
  "lon": 1.1314022,
  "timestamp": "2018-01-06T11:35:16Z",
  "version": 3,
  "changeset": 55208888,
  "user": "pedrobv",
  "uid": 581863,
  "tags": {
    "amenity": "place_of_worship",
    "denomination": "catholic",
    "name": "Sant Miquel",
    "religion": "christian"
  }
},
{
  "type": "node",
  "id": 2079970699,
  "lat": 41.7204088,
  "lon": 1.1061436,
  "timestamp": "2012-12-23T14:42:01Z",
  "version": 1,
  "changeset": 14378934,
  "user": "pitort",
  "uid": 469238,
  "tags": {
    "amenity": "place_of_worship",
    "denomination": "catholic",
    "name": "Santa Maria",
    "religion": "christian"
  }
},
{
  "type": "node",
  "id": 2080176114,
  "lat": 41.6077771,
  "lon": 1.0381991,
  "timestamp": "2012-12-23T17:28:03Z",
  "version": 1,
  "changeset": 14380879,
  "user": "pitort",
  "uid": 469238,
  "tags": {
    "amenity": "place_of_worship",
    "denomination": "catholic",
    "name": "Santa Maria",
    "religion": "christian"
  }
},
{
  "type": "node",
  "id": 2080249510,
  "lat": 41.7939909,
  "lon": 1.0511737,
  "timestamp": "2018-01-06T11:35:16Z",
  "version": 3,
  "changeset": 55208888,
  "user": "pedrobv",
  "uid": 581863,
  "tags": {
    "amenity": "place_of_worship",
    "denomination": "catholic",
    "name": "Sant Pere",
    "religion": "christian"
  }
},
{
  "type": "node",
  "id": 2081197780,
  "lat": 41.2696183,
  "lon": 1.1420443,
  "timestamp": "2017-09-25T03:25:43Z",
  "version": 2,
  "changeset": 52343157,
  "user": "nyuriks",
  "uid": 339581,
  "tags": {
    "amenity": "place_of_worship",
    "denomination": "catholic",
    "name": "el Remei",
    "religion": "christian",
    "wikidata": "Q17600817",
    "wikipedia": "ca:El Remei (Alcover)"
  }
},
{
  "type": "node",
  "id": 2082373625,
  "lat": 42.4014658,
  "lon": 0.7530524,
  "timestamp": "2012-12-25T16:35:49Z",
  "version": 1,
  "changeset": 14402504,
  "user": "pitort",
  "uid": 469238,
  "tags": {
    "amenity": "place_of_worship",
    "denomination": "catholic",
    "name": "Sant Esteve",
    "religion": "christian",
    "wikipedia": "ca:VSant Esteve de Ventolà"
  }
},
{
  "type": "node",
  "id": 2084158718,
  "lat": 41.7776260,
  "lon": 1.1233687,
  "timestamp": "2018-01-06T11:35:16Z",
  "version": 3,
  "changeset": 55208888,
  "user": "pedrobv",
  "uid": 581863,
  "tags": {
    "amenity": "place_of_worship",
    "denomination": "catholic",
    "name": "Sant Miquel",
    "religion": "christian"
  }
},
{
  "type": "node",
  "id": 2084158720,
  "lat": 41.7772023,
  "lon": 1.1218940,
  "timestamp": "2018-01-06T11:35:16Z",
  "version": 3,
  "changeset": 55208888,
  "user": "pedrobv",
  "uid": 581863,
  "tags": {
    "amenity": "place_of_worship",
    "denomination": "catholic",
    "name": "Sant Pere",
    "religion": "christian"
  }
},
{
  "type": "node",
  "id": 2084769663,
  "lat": 42.4048705,
  "lon": 0.8989453,
  "timestamp": "2017-09-25T03:18:50Z",
  "version": 2,
  "changeset": 52343088,
  "user": "nyuriks",
  "uid": 339581,
  "tags": {
    "amenity": "place_of_worship",
    "denomination": "catholic",
    "name": "Santa Maria",
    "religion": "christian",
    "wikidata": "Q18007553",
    "wikipedia": "ca:Santa Maria d'Avellanos"
  }
},
{
  "type": "node",
  "id": 2085488494,
  "lat": 42.4826098,
  "lon": 0.7342429,
  "timestamp": "2017-09-25T03:18:51Z",
  "version": 2,
  "changeset": 52343088,
  "user": "nyuriks",
  "uid": 339581,
  "tags": {
    "amenity": "place_of_worship",
    "denomination": "catholic",
    "name": "Sant Romà",
    "religion": "christian",
    "wikidata": "Q9007307",
    "wikipedia": "ca:Sant Romà de Casós"
  }
},
{
  "type": "node",
  "id": 2085654239,
  "lat": 42.4332785,
  "lon": 0.7409298,
  "timestamp": "2015-08-22T13:33:48Z",
  "version": 2,
  "changeset": 33505223,
  "user": "pitort",
  "uid": 469238,
  "tags": {
    "amenity": "place_of_worship",
    "denomination": "catholic",
    "name": "Sant Esteve",
    "religion": "christian"
  }
},
{
  "type": "node",
  "id": 2085654240,
  "lat": 42.4566943,
  "lon": 0.7586720,
  "timestamp": "2017-09-25T03:18:51Z",
  "version": 2,
  "changeset": 52343088,
  "user": "nyuriks",
  "uid": 339581,
  "tags": {
    "amenity": "place_of_worship",
    "denomination": "catholic",
    "name": "Sant Martí",
    "religion": "christian",
    "wikidata": "Q11682853",
    "wikipedia": "ca:Sant Martí de Llesp"
  }
},
{
  "type": "node",
  "id": 2086114594,
  "lat": 41.7963672,
  "lon": 1.0125286,
  "timestamp": "2018-01-06T11:35:16Z",
  "version": 3,
  "changeset": 55208888,
  "user": "pedrobv",
  "uid": 581863,
  "tags": {
    "amenity": "place_of_worship",
    "denomination": "catholic",
    "name": "Sant Pere",
    "religion": "christian"
  }
},
{
  "type": "node",
  "id": 2086176801,
  "lat": 41.8002985,
  "lon": 0.9936488,
  "timestamp": "2012-12-28T18:25:36Z",
  "version": 1,
  "changeset": 14442237,
  "user": "pitort",
  "uid": 469238,
  "tags": {
    "amenity": "place_of_worship",
    "denomination": "catholic",
    "name": "Santa Maria",
    "religion": "christian"
  }
},
{
  "type": "node",
  "id": 2087456294,
  "lat": 41.7974072,
  "lon": 1.0291514,
  "timestamp": "2012-12-29T17:05:41Z",
  "version": 1,
  "changeset": 14453283,
  "user": "pitort",
  "uid": 469238,
  "tags": {
    "amenity": "place_of_worship",
    "denomination": "catholic",
    "name": "Santa Maria",
    "religion": "christian"
  }
},
{
  "type": "node",
  "id": 2088640567,
  "lat": 41.8763900,
  "lon": 1.3109087,
  "timestamp": "2012-12-30T16:27:28Z",
  "version": 1,
  "changeset": 14466174,
  "user": "pitort",
  "uid": 469238,
  "tags": {
    "amenity": "place_of_worship",
    "denomination": "catholic",
    "name": "Santa Maria",
    "religion": "christian"
  }
},
{
  "type": "node",
  "id": 2088834189,
  "lat": 41.1951353,
  "lon": 1.2363697,
  "timestamp": "2012-12-30T18:03:36Z",
  "version": 1,
  "changeset": 14467489,
  "user": "Josep Massagués",
  "uid": 1152210,
  "tags": {
    "amenity": "place_of_worship",
    "name": "Església de Sant Sebastià",
    "religion": "christian"
  }
},
{
  "type": "node",
  "id": 2089869683,
  "lat": 41.2890835,
  "lon": 1.2519962,
  "timestamp": "2012-12-31T11:53:53Z",
  "version": 1,
  "changeset": 14475879,
  "user": "Albert Forés Garriga",
  "uid": 1170956,
  "tags": {
    "amenity": "place_of_worship",
    "name": "Parròquia de la Mare de Déu del Lledó",
    "religion": "christian"
  }
},
{
  "type": "node",
  "id": 2090024022,
  "lat": 41.2048058,
  "lon": 1.2800915,
  "timestamp": "2012-12-31T14:12:14Z",
  "version": 1,
  "changeset": 14477900,
  "user": "Josep Massagués",
  "uid": 1152210,
  "tags": {
    "amenity": "place_of_worship",
    "name": "Església de Santa Maria",
    "religion": "christian"
  }
},
{
  "type": "node",
  "id": 2091066482,
  "lat": 41.8668775,
  "lon": 1.2414975,
  "timestamp": "2013-01-01T15:54:44Z",
  "version": 1,
  "changeset": 14488235,
  "user": "pitort",
  "uid": 469238,
  "tags": {
    "amenity": "place_of_worship",
    "denomination": "catholic",
    "name": "Sant Salvador",
    "religion": "christian"
  }
},
{
  "type": "node",
  "id": 2091223975,
  "lat": 41.8509854,
  "lon": 1.2149634,
  "timestamp": "2018-01-06T11:35:16Z",
  "version": 3,
  "changeset": 55208888,
  "user": "pedrobv",
  "uid": 581863,
  "tags": {
    "amenity": "place_of_worship",
    "denomination": "catholic",
    "name": "Sant Joan Baptista",
    "religion": "christian"
  }
},
{
  "type": "node",
  "id": 2096625839,
  "lat": 41.8321195,
  "lon": 1.2759343,
  "timestamp": "2018-01-06T11:35:16Z",
  "version": 3,
  "changeset": 55208888,
  "user": "pedrobv",
  "uid": 581863,
  "tags": {
    "amenity": "place_of_worship",
    "denomination": "catholic",
    "name": "Sant Sebastià",
    "religion": "christian"
  }
},
{
  "type": "node",
  "id": 2096682465,
  "lat": 41.8303721,
  "lon": 1.2915387,
  "timestamp": "2017-12-31T16:03:05Z",
  "version": 3,
  "changeset": 55061353,
  "user": "pedrobv",
  "uid": 581863,
  "tags": {
    "amenity": "place_of_worship",
    "denomination": "catholic",
    "name": "Sant Vicenç",
    "religion": "christian"
  }
},
{
  "type": "node",
  "id": 2107494139,
  "lat": 41.6047601,
  "lon": 1.0454085,
  "timestamp": "2013-01-12T17:51:40Z",
  "version": 1,
  "changeset": 14625172,
  "user": "pitort",
  "uid": 469238,
  "tags": {
    "amenity": "place_of_worship",
    "denomination": "catholic",
    "name": "Mare de Déu de Montalbà",
    "religion": "christian"
  }
},
{
  "type": "node",
  "id": 2115076973,
  "lat": 41.4432569,
  "lon": 2.2393446,
  "timestamp": "2013-01-16T23:30:32Z",
  "version": 1,
  "changeset": 14678935,
  "user": "Sorenike",
  "uid": 1199887,
  "tags": {
    "amenity": "place_of_worship",
    "name": "Santuari de Maria Auxiliadora",
    "religion": "christian"
  }
},
{
  "type": "node",
  "id": 2119505578,
  "lat": 41.6803401,
  "lon": 0.9916336,
  "timestamp": "2013-01-19T16:38:16Z",
  "version": 1,
  "changeset": 14710004,
  "user": "pitort",
  "uid": 469238,
  "tags": {
    "amenity": "place_of_worship",
    "denomination": "catholic",
    "name": "Mare de Déu de l'Horta",
    "religion": "christian"
  }
},
{
  "type": "node",
  "id": 2119505579,
  "lat": 41.6828403,
  "lon": 0.9861603,
  "timestamp": "2017-12-31T16:10:41Z",
  "version": 3,
  "changeset": 55061511,
  "user": "pedrobv",
  "uid": 581863,
  "tags": {
    "amenity": "place_of_worship",
    "denomination": "catholic",
    "name": "Sant Andreu",
    "religion": "christian"
  }
},
{
  "type": "node",
  "id": 2119680320,
  "lat": 41.6789352,
  "lon": 1.0185221,
  "timestamp": "2018-01-06T11:35:17Z",
  "version": 3,
  "changeset": 55208888,
  "user": "pedrobv",
  "uid": 581863,
  "tags": {
    "amenity": "place_of_worship",
    "denomination": "catholic",
    "name": "Sant Roc",
    "name:ca": "Sant Roc",
    "religion": "christian"
  }
},
{
  "type": "node",
  "id": 2120730044,
  "lat": 41.6913850,
  "lon": 1.0157128,
  "timestamp": "2013-01-20T11:33:23Z",
  "version": 1,
  "changeset": 14718726,
  "user": "pitort",
  "uid": 469238,
  "tags": {
    "amenity": "place_of_worship",
    "denomination": "catholic",
    "name": "La Nativitat de la Mare de Déu",
    "religion": "christian"
  }
},
{
  "type": "node",
  "id": 2120838719,
  "lat": 41.6966134,
  "lon": 0.9510558,
  "timestamp": "2018-01-06T11:35:17Z",
  "version": 3,
  "changeset": 55208888,
  "user": "pedrobv",
  "uid": 581863,
  "tags": {
    "amenity": "place_of_worship",
    "denomination": "catholic",
    "name": "Sant Miquel",
    "religion": "christian"
  }
},
{
  "type": "node",
  "id": 2136233239,
  "lat": 41.3913323,
  "lon": 2.1544652,
  "timestamp": "2019-03-27T09:22:19Z",
  "version": 4,
  "changeset": 68578628,
  "user": "b-jazz-bot",
  "uid": 9451067,
  "tags": {
    "addr:city": "Barcelona",
    "addr:housenumber": "181",
    "addr:street": "Rosselló",
    "amenity": "place_of_worship",
    "name": "Fundació Casa del Tíbet",
    "religion": "buddhist",
    "website": "https://www.casadeltibetbcn.org/",
    "wheelchair": "yes",
    "wheelchair:description": "La planta baja es completamente accesible, rampa, sala de actos y baños. Para subir a la planta de oficinas hay que pedir que accionen elevador."
  }
},
{
  "type": "node",
  "id": 2137755757,
  "lat": 41.7079199,
  "lon": 1.0336327,
  "timestamp": "2013-02-01T18:21:24Z",
  "version": 1,
  "changeset": 14874224,
  "user": "pitort",
  "uid": 469238,
  "tags": {
    "amenity": "place_of_worship",
    "denomination": "catholic",
    "name": "Santa Cecília",
    "religion": "christian"
  }
},
{
  "type": "node",
  "id": 2139118871,
  "lat": 41.7654285,
  "lon": 1.0208312,
  "timestamp": "2013-02-02T16:46:50Z",
  "version": 1,
  "changeset": 14885700,
  "user": "pitort",
  "uid": 469238,
  "tags": {
    "amenity": "place_of_worship",
    "denomination": "catholic",
    "name": "Sant Jaume de Cal Trepat",
    "religion": "christian"
  }
},
{
  "type": "node",
  "id": 2146808033,
  "lat": 41.6486753,
  "lon": 0.9702048,
  "timestamp": "2018-01-06T11:35:17Z",
  "version": 3,
  "changeset": 55208888,
  "user": "pedrobv",
  "uid": 581863,
  "tags": {
    "amenity": "place_of_worship",
    "denomination": "catholic",
    "name": "Sant Joan",
    "religion": "christian"
  }
},
{
  "type": "node",
  "id": 2147986495,
  "lat": 41.6633327,
  "lon": 0.9283082,
  "timestamp": "2018-01-06T11:35:17Z",
  "version": 3,
  "changeset": 55208888,
  "user": "pedrobv",
  "uid": 581863,
  "tags": {
    "amenity": "place_of_worship",
    "denomination": "catholic",
    "name": "Sant Miquel",
    "religion": "christian"
  }
},
{
  "type": "node",
  "id": 2149252667,
  "lat": 41.6464138,
  "lon": 2.7425034,
  "timestamp": "2013-04-04T09:03:19Z",
  "version": 2,
  "changeset": 15604738,
  "user": "acperience",
  "uid": 1327860,
  "tags": {
    "amenity": "place_of_worship",
    "name": "Esglesia de Sant Nicolau",
    "religion": "christian"
  }
},
{
  "type": "node",
  "id": 2150031946,
  "lat": 41.8516007,
  "lon": 1.5193819,
  "timestamp": "2013-02-11T08:26:01Z",
  "version": 1,
  "changeset": 14991101,
  "user": "pitort",
  "uid": 469238,
  "tags": {
    "amenity": "place_of_worship",
    "denomination": "catholic",
    "name": "Santa Maria",
    "religion": "christian"
  }
},
{
  "type": "node",
  "id": 2150526253,
  "lat": 41.9665489,
  "lon": 1.4386830,
  "timestamp": "2013-02-11T16:02:12Z",
  "version": 1,
  "changeset": 14995724,
  "user": "pitort",
  "uid": 469238,
  "tags": {
    "amenity": "place_of_worship",
    "denomination": "catholic",
    "name": "Sant Iscle",
    "religion": "christian"
  }
},
{
  "type": "node",
  "id": 2154071265,
  "lat": 40.5986157,
  "lon": 0.4490996,
  "timestamp": "2013-02-14T08:00:19Z",
  "version": 1,
  "changeset": 15026324,
  "user": "Aitor Callarisa Periche",
  "uid": 1227020,
  "tags": {
    "amenity": "place_of_worship",
    "description": "Historicisme XIX",
    "name": "Antic convent de les Carmelites Descalces",
    "religion": "christian"
  }
},
{
  "type": "node",
  "id": 2157730593,
  "lat": 41.5760309,
  "lon": 1.7856664,
  "timestamp": "2013-02-16T17:35:43Z",
  "version": 1,
  "changeset": 15054187,
  "user": "pitort",
  "uid": 469238,
  "tags": {
    "amenity": "place_of_worship",
    "denomination": "catholic",
    "name": "Santa Maria",
    "religion": "christian"
  }
},
{
  "type": "node",
  "id": 2159785089,
  "lat": 41.6400864,
  "lon": 1.8035163,
  "timestamp": "2017-09-25T03:25:46Z",
  "version": 3,
  "changeset": 52343157,
  "user": "nyuriks",
  "uid": 339581,
  "tags": {
    "amenity": "place_of_worship",
    "building": "church",
    "denomination": "catholic",
    "name": "Sant Esteve",
    "religion": "christian",
    "tourism": "attraction",
    "wikidata": "Q21480166",
    "wikipedia": "ca:Sant Esteve de Marganell"
  }
},
{
  "type": "node",
  "id": 2166865352,
  "lat": 41.6121784,
  "lon": 1.7477071,
  "timestamp": "2018-10-24T09:54:50Z",
  "version": 2,
  "changeset": 63825592,
  "user": "Jesús Gómez",
  "uid": 6389,
  "tags": {
    "amenity": "place_of_worship",
    "denomination": "catholic",
    "name": "Sant Pau de la Guàrdia",
    "religion": "christian",
    "wikidata": "Q20984879"
  }
},
{
  "type": "node",
  "id": 2168905389,
  "lat": 41.8304794,
  "lon": 1.5908046,
  "timestamp": "2018-01-06T11:35:17Z",
  "version": 3,
  "changeset": 55208888,
  "user": "pedrobv",
  "uid": 581863,
  "tags": {
    "amenity": "place_of_worship",
    "denomination": "catholic",
    "name": "Sant Miquel",
    "religion": "christian"
  }
},
{
  "type": "node",
  "id": 2168947654,
  "lat": 41.8307954,
  "lon": 1.5879107,
  "timestamp": "2018-01-06T11:35:17Z",
  "version": 3,
  "changeset": 55208888,
  "user": "pedrobv",
  "uid": 581863,
  "tags": {
    "amenity": "place_of_worship",
    "denomination": "catholic",
    "name": "Sant Pere",
    "religion": "christian"
  }
},
{
  "type": "node",
  "id": 2181536063,
  "lat": 41.5430519,
  "lon": 1.3600828,
  "timestamp": "2017-09-25T03:25:47Z",
  "version": 3,
  "changeset": 52343157,
  "user": "nyuriks",
  "uid": 339581,
  "tags": {
    "amenity": "place_of_worship",
    "denomination": "catholic",
    "name": "Santa Fe",
    "religion": "christian",
    "wikidata": "Q17389618",
    "wikipedia": "ca:Església de la Santa Fe de Rauric"
  }
},
{
  "type": "node",
  "id": 2183432062,
  "lat": 41.5591563,
  "lon": 1.3939813,
  "timestamp": "2018-10-24T12:00:08Z",
  "version": 2,
  "changeset": 63829505,
  "user": "Jesús Gómez",
  "uid": 6389,
  "tags": {
    "amenity": "place_of_worship",
    "denomination": "catholic",
    "name": "Santa Fe de Montfred",
    "religion": "christian",
    "wikidata": "Q18007514"
  }
},
{
  "type": "node",
  "id": 2183916016,
  "lat": 41.5527034,
  "lon": 1.3311803,
  "timestamp": "2013-03-03T16:18:56Z",
  "version": 1,
  "changeset": 15235589,
  "user": "pitort",
  "uid": 469238,
  "tags": {
    "amenity": "place_of_worship",
    "denomination": "catholic",
    "name": "Santa Maria",
    "religion": "christian"
  }
},
{
  "type": "node",
  "id": 2191221963,
  "lat": 41.5702053,
  "lon": 1.1585745,
  "timestamp": "2017-09-25T03:25:47Z",
  "version": 2,
  "changeset": 52343157,
  "user": "nyuriks",
  "uid": 339581,
  "tags": {
    "amenity": "place_of_worship",
    "denomination": "catholic",
    "name": "Santuari de la Mare de Déu de la Bovera",
    "religion": "christian",
    "website": "http://www.guimera.info/esglesia/santuari.htm",
    "wikidata": "Q9034489",
    "wikipedia": "ca:Santa Maria de la Bovera"
  }
},
{
  "type": "node",
  "id": 2192860700,
  "lat": 41.5130080,
  "lon": 1.3916126,
  "timestamp": "2017-02-13T23:08:46Z",
  "version": 2,
  "changeset": 46064604,
  "user": "netol",
  "uid": 3890739,
  "tags": {
    "amenity": "place_of_worship",
    "denomination": "catholic",
    "name": "Mare de Déu de la Llet",
    "religion": "christian",
    "wikidata": "Q17602095",
    "wikipedia": "ca:Església de Sant Gallard"
  }
},
{
  "type": "node",
  "id": 2194118933,
  "lat": 41.5170578,
  "lon": 1.3763705,
  "timestamp": "2013-03-10T11:52:44Z",
  "version": 1,
  "changeset": 15313670,
  "user": "pitort",
  "uid": 469238,
  "tags": {
    "amenity": "place_of_worship",
    "denomination": "catholic",
    "name": "Sant Salvador",
    "religion": "christian"
  }
},
{
  "type": "node",
  "id": 2194276504,
  "lat": 41.5123480,
  "lon": 1.3655925,
  "timestamp": "2013-03-10T14:06:24Z",
  "version": 1,
  "changeset": 15315301,
  "user": "pitort",
  "uid": 469238,
  "tags": {
    "amenity": "place_of_worship",
    "denomination": "catholic",
    "name": "Mare de Déu del Roser",
    "religion": "christian"
  }
},
{
  "type": "node",
  "id": 2203515987,
  "lat": 41.5036354,
  "lon": 1.3422818,
  "timestamp": "2013-03-15T17:09:45Z",
  "version": 1,
  "changeset": 15375589,
  "user": "pitort",
  "uid": 469238,
  "tags": {
    "amenity": "place_of_worship",
    "denomination": "catholic",
    "name": "Sant Martí",
    "religion": "christian"
  }
},
{
  "type": "node",
  "id": 2203523822,
  "lat": 41.5019425,
  "lon": 1.3429918,
  "timestamp": "2013-03-15T17:20:02Z",
  "version": 1,
  "changeset": 15375681,
  "user": "pitort",
  "uid": 469238,
  "tags": {
    "amenity": "place_of_worship",
    "denomination": "catholic",
    "name": "Santa Eugènia",
    "religion": "christian"
  }
},
{
  "type": "node",
  "id": 2205044877,
  "lat": 41.5423011,
  "lon": 1.1398001,
  "timestamp": "2018-01-06T11:35:17Z",
  "version": 3,
  "changeset": 55208888,
  "user": "pedrobv",
  "uid": 581863,
  "tags": {
    "amenity": "place_of_worship",
    "denomination": "catholic",
    "name": "Sant Roc",
    "name:ca": "Sant Roc",
    "religion": "christian"
  }
},
{
  "type": "node",
  "id": 2211965723,
  "lat": 42.1561416,
  "lon": 2.0343817,
  "timestamp": "2013-03-20T20:55:58Z",
  "version": 1,
  "changeset": 15436567,
  "user": "sim6",
  "uid": 129718,
  "tags": {
    "amenity": "place_of_worship",
    "religion": "christian"
  }
},
{
  "type": "node",
  "id": 2211985247,
  "lat": 42.1375923,
  "lon": 2.0754629,
  "timestamp": "2013-03-20T21:08:14Z",
  "version": 1,
  "changeset": 15436715,
  "user": "sim6",
  "uid": 129718,
  "tags": {
    "amenity": "place_of_worship",
    "name": "Sant Pere de Serrallonga (Segle XI)",
    "religion": "christian"
  }
},
{
  "type": "node",
  "id": 2216785403,
  "lat": 41.5193084,
  "lon": 2.0311847,
  "timestamp": "2013-03-23T16:00:28Z",
  "version": 1,
  "changeset": 15468028,
  "user": "pitort",
  "uid": 469238,
  "tags": {
    "amenity": "place_of_worship",
    "denomination": "catholic",
    "name": "Ermita de Can Fonollet",
    "religion": "christian"
  }
},
{
  "type": "node",
  "id": 2234856610,
  "lat": 41.5430347,
  "lon": 1.2989835,
  "timestamp": "2018-01-06T11:35:17Z",
  "version": 3,
  "changeset": 55208888,
  "user": "pedrobv",
  "uid": 581863,
  "tags": {
    "amenity": "place_of_worship",
    "denomination": "catholic",
    "name": "Sant Pere",
    "religion": "christian"
  }
},
{
  "type": "node",
  "id": 2235941377,
  "lat": 41.3556157,
  "lon": 2.0864985,
  "timestamp": "2013-03-30T00:52:26Z",
  "version": 1,
  "changeset": 15546187,
  "user": "Arnau_C",
  "uid": 1314492,
  "tags": {
    "amenity": "place_of_worship",
    "name": "Parroquia Sant Jaume",
    "religion": "christian"
  }
},
{
  "type": "node",
  "id": 2238275573,
  "lat": 41.5388333,
  "lon": 1.1477644,
  "timestamp": "2018-01-06T11:35:18Z",
  "version": 3,
  "changeset": 55208888,
  "user": "pedrobv",
  "uid": 581863,
  "tags": {
    "amenity": "place_of_worship",
    "denomination": "catholic",
    "name": "Sant Roc",
    "name:ca": "Sant Roc",
    "religion": "christian"
  }
},
{
  "type": "node",
  "id": 2238437569,
  "lat": 41.7375626,
  "lon": 1.3517771,
  "timestamp": "2013-03-30T16:19:59Z",
  "version": 1,
  "changeset": 15553135,
  "user": "pitort",
  "uid": 469238,
  "tags": {
    "amenity": "place_of_worship",
    "denomination": "catholic",
    "name": "Sant Cosme i Sant Damià",
    "religion": "christian"
  }
},
{
  "type": "node",
  "id": 2238437572,
  "lat": 41.7386116,
  "lon": 1.3501936,
  "timestamp": "2013-03-30T16:19:59Z",
  "version": 1,
  "changeset": 15553135,
  "user": "pitort",
  "uid": 469238,
  "tags": {
    "amenity": "place_of_worship",
    "denomination": "catholic",
    "name": "Sant Martí",
    "religion": "christian"
  }
},
{
  "type": "node",
  "id": 2238830031,
  "lat": 41.6484435,
  "lon": 1.1057253,
  "timestamp": "2013-03-30T18:30:10Z",
  "version": 1,
  "changeset": 15554699,
  "user": "pitort",
  "uid": 469238,
  "tags": {
    "amenity": "place_of_worship",
    "denomination": "catholic",
    "name": "Santa Maria",
    "religion": "christian"
  }
},
{
  "type": "node",
  "id": 2238830034,
  "lat": 41.6487911,
  "lon": 1.1027147,
  "timestamp": "2013-03-30T18:30:10Z",
  "version": 1,
  "changeset": 15554699,
  "user": "pitort",
  "uid": 469238,
  "tags": {
    "amenity": "place_of_worship",
    "denomination": "catholic",
    "name": "el Roser",
    "religion": "christian"
  }
},
{
  "type": "node",
  "id": 2255411613,
  "lat": 41.6739281,
  "lon": 1.0172067,
  "timestamp": "2018-01-06T11:35:18Z",
  "version": 3,
  "changeset": 55208888,
  "user": "pedrobv",
  "uid": 581863,
  "tags": {
    "amenity": "place_of_worship",
    "denomination": "catholic",
    "name": "Sant Miquel",
    "religion": "christian"
  }
},
{
  "type": "node",
  "id": 2273731439,
  "lat": 41.7981504,
  "lon": 0.8366210,
  "timestamp": "2013-04-20T13:40:50Z",
  "version": 1,
  "changeset": 15797546,
  "user": "pitort",
  "uid": 469238,
  "tags": {
    "amenity": "place_of_worship",
    "denomination": "catholic",
    "name": "Sant Jordi",
    "religion": "christian"
  }
},
{
  "type": "node",
  "id": 2273861944,
  "lat": 41.7831422,
  "lon": 0.8446918,
  "timestamp": "2013-04-20T15:29:28Z",
  "version": 1,
  "changeset": 15798883,
  "user": "pitort",
  "uid": 469238,
  "tags": {
    "amenity": "place_of_worship",
    "denomination": "catholic",
    "name": "la Sagrada Família",
    "religion": "christian"
  }
},
{
  "type": "node",
  "id": 2283834362,
  "lat": 41.7744079,
  "lon": 0.9522190,
  "timestamp": "2018-01-06T11:35:18Z",
  "version": 3,
  "changeset": 55208888,
  "user": "pedrobv",
  "uid": 581863,
  "tags": {
    "amenity": "place_of_worship",
    "denomination": "catholic",
    "name": "Sant Josep",
    "religion": "christian"
  }
},
{
  "type": "node",
  "id": 2292702299,
  "lat": 41.7207336,
  "lon": 1.0575410,
  "timestamp": "2013-05-05T17:28:55Z",
  "version": 1,
  "changeset": 15987279,
  "user": "pitort",
  "uid": 469238,
  "tags": {
    "amenity": "place_of_worship",
    "denomination": "catholic",
    "name": "Santa Maria",
    "religion": "christian"
  }
},
{
  "type": "node",
  "id": 2305961731,
  "lat": 41.7224620,
  "lon": 1.8286840,
  "timestamp": "2013-05-16T07:05:37Z",
  "version": 1,
  "changeset": 16148453,
  "user": "EliziR",
  "uid": 605366,
  "tags": {
    "amenity": "place_of_worship",
    "name": "Mesquita",
    "religion": "muslim"
  }
},
{
  "type": "node",
  "id": 2306991123,
  "lat": 42.3358213,
  "lon": 2.3702143,
  "timestamp": "2013-05-16T22:04:02Z",
  "version": 1,
  "changeset": 16159783,
  "user": "EliziR",
  "uid": 605366,
  "tags": {
    "amenity": "place_of_worship",
    "denomination": "catholic",
    "name": "Ascensió",
    "religion": "christian"
  }
},
{
  "type": "node",
  "id": 2308405648,
  "lat": 41.7584324,
  "lon": 0.9652178,
  "timestamp": "2018-01-06T11:35:18Z",
  "version": 3,
  "changeset": 55208888,
  "user": "pedrobv",
  "uid": 581863,
  "tags": {
    "amenity": "place_of_worship",
    "denomination": "catholic",
    "name": "Sant Joan Baptista",
    "religion": "christian"
  }
},
{
  "type": "node",
  "id": 2310745349,
  "lat": 41.7191116,
  "lon": 1.0056482,
  "timestamp": "2013-05-19T07:37:38Z",
  "version": 1,
  "changeset": 16189574,
  "user": "pitort",
  "uid": 469238,
  "tags": {
    "amenity": "place_of_worship",
    "denomination": "catholic",
    "name": "Santa Maria",
    "religion": "christian"
  }
},
{
  "type": "node",
  "id": 2310857323,
  "lat": 41.7136458,
  "lon": 1.0181839,
  "timestamp": "2013-05-19T08:29:10Z",
  "version": 1,
  "changeset": 16190098,
  "user": "pitort",
  "uid": 469238,
  "tags": {
    "amenity": "place_of_worship",
    "denomination": "catholic",
    "name": "Santa Llúcia",
    "religion": "christian"
  }
},
{
  "type": "node",
  "id": 2312497129,
  "lat": 41.6933806,
  "lon": 1.0752799,
  "timestamp": "2013-05-20T07:20:57Z",
  "version": 1,
  "changeset": 16203667,
  "user": "pitort",
  "uid": 469238,
  "tags": {
    "amenity": "place_of_worship",
    "denomination": "catholic",
    "name": "Santa Maria de l'Aguilella",
    "religion": "christian"
  }
},
{
  "type": "node",
  "id": 2319608195,
  "lat": 41.6588668,
  "lon": 1.0820272,
  "timestamp": "2013-05-25T13:52:35Z",
  "version": 1,
  "changeset": 16279664,
  "user": "pitort",
  "uid": 469238,
  "tags": {
    "amenity": "place_of_worship",
    "denomination": "catholic",
    "name": "Sant Pau de Narbona",
    "religion": "christian"
  }
},
{
  "type": "node",
  "id": 2320703691,
  "lat": 40.6556609,
  "lon": 0.4687672,
  "timestamp": "2013-05-26T13:51:03Z",
  "version": 1,
  "changeset": 16293486,
  "user": "ctorta",
  "uid": 969388,
  "tags": {
    "amenity": "place_of_worship",
    "religion": "christian"
  }
},
{
  "type": "node",
  "id": 2321021726,
  "lat": 40.8204997,
  "lon": 0.5031341,
  "timestamp": "2013-05-26T17:45:08Z",
  "version": 1,
  "changeset": 16297771,
  "user": "ctorta",
  "uid": 969388,
  "tags": {
    "amenity": "place_of_worship",
    "religion": "christian"
  }
},
{
  "type": "node",
  "id": 2327382504,
  "lat": 41.7024965,
  "lon": 1.1241600,
  "timestamp": "2013-05-31T17:13:50Z",
  "version": 1,
  "changeset": 16368032,
  "user": "pitort",
  "uid": 469238,
  "tags": {
    "amenity": "place_of_worship",
    "denomination": "catholic",
    "name": "Mare de Déu dels Arcs",
    "religion": "christian"
  }
},
{
  "type": "node",
  "id": 2327382508,
  "lat": 41.7024842,
  "lon": 1.1258847,
  "timestamp": "2013-05-31T17:13:50Z",
  "version": 1,
  "changeset": 16368032,
  "user": "pitort",
  "uid": 469238,
  "tags": {
    "amenity": "place_of_worship",
    "denomination": "catholic",
    "name": "Sant Salvador",
    "religion": "christian"
  }
},
{
  "type": "node",
  "id": 2335466418,
  "lat": 41.7545343,
  "lon": 1.1591975,
  "timestamp": "2013-06-07T15:37:28Z",
  "version": 1,
  "changeset": 16458635,
  "user": "pitort",
  "uid": 469238,
  "tags": {
    "amenity": "place_of_worship",
    "denomination": "catholic",
    "name": "Mare de Déu del Remei",
    "religion": "christian"
  }
},
{
  "type": "node",
  "id": 2337414721,
  "lat": 40.8590790,
  "lon": 0.5231247,
  "timestamp": "2013-06-08T18:41:22Z",
  "version": 2,
  "changeset": 16471894,
  "user": "ctorta",
  "uid": 969388,
  "tags": {
    "amenity": "place_of_worship",
    "name": "Maré de Déu de l'Oliva",
    "religion": "christian"
  }
},
{
  "type": "node",
  "id": 2338259046,
  "lat": 41.6973142,
  "lon": 1.1680742,
  "timestamp": "2015-07-10T20:16:32Z",
  "version": 3,
  "changeset": 32552467,
  "user": "yopaseopor",
  "uid": 500572,
  "tags": {
    "amenity": "place_of_worship",
    "denomination": "catholic",
    "name": "l'Assumpta",
    "religion": "christian"
  }
},
{
  "type": "node",
  "id": 2338303695,
  "lat": 40.8797012,
  "lon": 0.5000218,
  "timestamp": "2013-06-09T16:05:40Z",
  "version": 2,
  "changeset": 16483929,
  "user": "ctorta",
  "uid": 969388,
  "tags": {
    "amenity": "place_of_worship",
    "name": "la Nativitat de Maria",
    "religion": "christian"
  }
},
{
  "type": "node",
  "id": 2345438819,
  "lat": 41.7872556,
  "lon": 1.0991469,
  "timestamp": "2017-09-25T03:25:52Z",
  "version": 2,
  "changeset": 52343157,
  "user": "nyuriks",
  "uid": 339581,
  "tags": {
    "amenity": "place_of_worship",
    "denomination": "catholic",
    "name": "Santa Maria",
    "religion": "christian",
    "wikidata": "Q11947569",
    "wikipedia": "ca:Santa Maria d'Agramunt"
  }
},
{
  "type": "node",
  "id": 2347011785,
  "lat": 41.6938823,
  "lon": 0.8323243,
  "timestamp": "2019-08-07T17:35:48Z",
  "version": 2,
  "changeset": 73122405,
  "user": "Dalon",
  "uid": 10208273,
  "tags": {
    "amenity": "place_of_worship",
    "denomination": "catholic",
    "name": "Sant Antoni Abad",
    "religion": "christian"
  }
},
{
  "type": "node",
  "id": 2347402016,
  "lat": 41.8004380,
  "lon": 1.1296701,
  "timestamp": "2013-06-16T13:20:38Z",
  "version": 1,
  "changeset": 16575950,
  "user": "pitort",
  "uid": 469238,
  "tags": {
    "amenity": "place_of_worship",
    "denomination": "catholic",
    "name": "Sant Domènec",
    "religion": "christian"
  }
},
{
  "type": "node",
  "id": 2356035418,
  "lat": 41.8306511,
  "lon": 1.2223846,
  "timestamp": "2013-06-22T14:23:20Z",
  "version": 1,
  "changeset": 16657025,
  "user": "pitort",
  "uid": 469238,
  "tags": {
    "amenity": "place_of_worship",
    "denomination": "catholic",
    "name": "Sant Martí",
    "religion": "christian"
  }
},
{
  "type": "node",
  "id": 2356103670,
  "lat": 41.8378550,
  "lon": 1.2197499,
  "timestamp": "2013-06-22T15:11:43Z",
  "version": 1,
  "changeset": 16657691,
  "user": "pitort",
  "uid": 469238,
  "tags": {
    "amenity": "place_of_worship",
    "denomination": "catholic",
    "name": "Santa Maria",
    "religion": "christian"
  }
},
{
  "type": "node",
  "id": 2357006097,
  "lat": 41.7497435,
  "lon": 1.1845540,
  "timestamp": "2013-06-23T10:24:58Z",
  "version": 1,
  "changeset": 16667228,
  "user": "pitort",
  "uid": 469238,
  "tags": {
    "amenity": "place_of_worship",
    "denomination": "catholic",
    "name": "Santa Maria",
    "religion": "christian"
  }
},
{
  "type": "node",
  "id": 2357105888,
  "lat": 41.7610240,
  "lon": 1.1929813,
  "timestamp": "2013-06-23T11:46:09Z",
  "version": 1,
  "changeset": 16668231,
  "user": "pitort",
  "uid": 469238,
  "tags": {
    "amenity": "place_of_worship",
    "denomination": "catholic",
    "name": "Santa Maria Magdalena",
    "religion": "christian"
  }
},
{
  "type": "node",
  "id": 2357388169,
  "lat": 41.7621192,
  "lon": 1.1977004,
  "timestamp": "2013-06-23T15:45:27Z",
  "version": 1,
  "changeset": 16671370,
  "user": "pitort",
  "uid": 469238,
  "tags": {
    "amenity": "place_of_worship",
    "denomination": "catholic",
    "name": "Sant Salvador",
    "religion": "christian"
  }
},
{
  "type": "node",
  "id": 2358643071,
  "lat": 41.8388403,
  "lon": 1.1923943,
  "timestamp": "2013-06-24T12:50:08Z",
  "version": 1,
  "changeset": 16683968,
  "user": "pitort",
  "uid": 469238,
  "tags": {
    "amenity": "place_of_worship",
    "denomination": "catholic",
    "name": "Santuari de Sant Pol",
    "religion": "christian"
  }
},
{
  "type": "node",
  "id": 2358837677,
  "lat": 41.7519248,
  "lon": 1.2032497,
  "timestamp": "2017-09-25T03:25:53Z",
  "version": 2,
  "changeset": 52343157,
  "user": "nyuriks",
  "uid": 339581,
  "tags": {
    "amenity": "place_of_worship",
    "denomination": "catholic",
    "name": "Sant Esteve",
    "religion": "christian",
    "wikidata": "Q11947005",
    "wikipedia": "ca:Sant Esteve de Pelagalls"
  }
},
{
  "type": "node",
  "id": 2358837678,
  "lat": 41.7511786,
  "lon": 1.1922451,
  "timestamp": "2018-01-06T11:35:18Z",
  "version": 3,
  "changeset": 55208888,
  "user": "pedrobv",
  "uid": 581863,
  "tags": {
    "amenity": "place_of_worship",
    "denomination": "catholic",
    "name": "Sant Roc",
    "name:ca": "Sant Roc",
    "religion": "christian"
  }
},
{
  "type": "node",
  "id": 2359127093,
  "lat": 41.7541754,
  "lon": 1.2100296,
  "timestamp": "2013-06-24T17:27:09Z",
  "version": 1,
  "changeset": 16687624,
  "user": "pitort",
  "uid": 469238,
  "tags": {
    "amenity": "place_of_worship",
    "denomination": "catholic",
    "name": "Santa Maria del Bellvilar",
    "religion": "christian"
  }
},
{
  "type": "node",
  "id": 2375314533,
  "lat": 41.7664016,
  "lon": 1.2509435,
  "timestamp": "2013-07-05T17:25:21Z",
  "version": 1,
  "changeset": 16839134,
  "user": "pitort",
  "uid": 469238,
  "tags": {
    "amenity": "place_of_worship",
    "denomination": "catholic",
    "name": "Sant Salvador",
    "religion": "christian"
  }
},
{
  "type": "node",
  "id": 2375880784,
  "lat": 41.7747584,
  "lon": 1.2569939,
  "timestamp": "2013-07-06T09:48:22Z",
  "version": 1,
  "changeset": 16846469,
  "user": "pitort",
  "uid": 469238,
  "tags": {
    "amenity": "place_of_worship",
    "denomination": "catholic",
    "name": "Santa Maria",
    "religion": "christian"
  }
},
{
  "type": "node",
  "id": 2376872420,
  "lat": 41.7823129,
  "lon": 1.2632926,
  "timestamp": "2013-07-07T12:32:56Z",
  "version": 2,
  "changeset": 16860516,
  "user": "pitort",
  "uid": 469238,
  "tags": {
    "amenity": "place_of_worship",
    "denomination": "catholic",
    "name": "Sant Esteve",
    "religion": "christian"
  }
},
{
  "type": "node",
  "id": 2383211505,
  "lat": 42.0685371,
  "lon": 2.6519536,
  "timestamp": "2013-07-13T12:42:58Z",
  "version": 1,
  "changeset": 16936579,
  "user": "pitort",
  "uid": 469238,
  "tags": {
    "amenity": "place_of_worship",
    "denomination": "catholic",
    "name": "Santa Maria",
    "religion": "christian"
  }
},
{
  "type": "node",
  "id": 2383355347,
  "lat": 42.0919695,
  "lon": 2.6135555,
  "timestamp": "2018-01-06T12:44:06Z",
  "version": 3,
  "changeset": 55210338,
  "user": "pedrobv",
  "uid": 581863,
  "tags": {
    "amenity": "place_of_worship",
    "denomination": "catholic",
    "name": "Sant Miquel",
    "religion": "christian"
  }
},
{
  "type": "node",
  "id": 2384034526,
  "lat": 41.8469810,
  "lon": 3.1285872,
  "timestamp": "2019-12-02T21:21:30Z",
  "version": 2,
  "changeset": 77842872,
  "user": "Wim L",
  "uid": 223681,
  "tags": {
    "amenity": "place_of_worship",
    "contact:email": "parroquies.palamos@gmail.com",
    "contact:phone": "+34 972 314 420",
    "denomination": "catholic",
    "name": "Santa Maria del Mar",
    "opening_hours": "Mo-Su 09:00-20:30",
    "religion": "christian"
  }
},
{
  "type": "node",
  "id": 2384276070,
  "lat": 41.8315074,
  "lon": 1.3488118,
  "timestamp": "2013-07-14T13:26:23Z",
  "version": 1,
  "changeset": 16949272,
  "user": "pitort",
  "uid": 469238,
  "tags": {
    "amenity": "place_of_worship",
    "denomination": "catholic",
    "name": "Sant Pelegrí",
    "religion": "christian"
  }
},
{
  "type": "node",
  "id": 2389821926,
  "lat": 41.8104558,
  "lon": 1.2742786,
  "timestamp": "2018-01-06T11:35:18Z",
  "version": 3,
  "changeset": 55208888,
  "user": "pedrobv",
  "uid": 581863,
  "tags": {
    "amenity": "place_of_worship",
    "denomination": "catholic",
    "name": "Sant Miquel",
    "religion": "christian"
  }
},
{
  "type": "node",
  "id": 2390620076,
  "lat": 41.8174856,
  "lon": 1.2508221,
  "timestamp": "2013-07-20T15:35:59Z",
  "version": 1,
  "changeset": 17024380,
  "user": "pitort",
  "uid": 469238,
  "tags": {
    "amenity": "place_of_worship",
    "denomination": "catholic",
    "name": "Sant Ponç",
    "religion": "christian"
  }
},
{
  "type": "node",
  "id": 2391156372,
  "lat": 41.8191056,
  "lon": 1.3286050,
  "timestamp": "2018-01-06T11:35:18Z",
  "version": 3,
  "changeset": 55208888,
  "user": "pedrobv",
  "uid": 581863,
  "tags": {
    "amenity": "place_of_worship",
    "denomination": "catholic",
    "name": "Sant Pere",
    "religion": "christian"
  }
},
{
  "type": "node",
  "id": 2395648964,
  "lat": 41.8213329,
  "lon": 2.2228319,
  "timestamp": "2013-07-24T23:15:42Z",
  "version": 1,
  "changeset": 17082230,
  "user": "Jose Luis Infante",
  "uid": 126203,
  "tags": {
    "amenity": "place_of_worship",
    "name": "Santuari de la Mare de Déu de l'Ajuda",
    "religion": "christian"
  }
},
{
  "type": "node",
  "id": 2397514895,
  "lat": 41.7965728,
  "lon": 1.3571801,
  "timestamp": "2013-07-26T16:45:01Z",
  "version": 1,
  "changeset": 17104103,
  "user": "pitort",
  "uid": 469238,
  "tags": {
    "amenity": "place_of_worship",
    "denomination": "catholic",
    "name": "Sant Jaume",
    "religion": "christian"
  }
},
{
  "type": "node",
  "id": 2398449185,
  "lat": 41.8109947,
  "lon": 1.4075606,
  "timestamp": "2013-07-27T15:50:11Z",
  "version": 1,
  "changeset": 17115463,
  "user": "pitort",
  "uid": 469238,
  "tags": {
    "amenity": "place_of_worship",
    "denomination": "catholic",
    "name": "Convent de Sant Antoni",
    "religion": "christian"
  }
},
{
  "type": "node",
  "id": 2404967234,
  "lat": 42.1712037,
  "lon": 2.3948688,
  "timestamp": "2013-08-02T11:07:12Z",
  "version": 1,
  "changeset": 17190665,
  "user": "prana7",
  "uid": 524674,
  "tags": {
    "amenity": "place_of_worship",
    "building": "yes",
    "denomination": "catholic",
    "name": "Santuari de Font de Joan",
    "religion": "christian"
  }
},
{
  "type": "node",
  "id": 2406382156,
  "lat": 41.4268087,
  "lon": 2.1667984,
  "timestamp": "2013-08-03T21:05:01Z",
  "version": 1,
  "changeset": 17208598,
  "user": "Kurt34",
  "uid": 334258,
  "tags": {
    "amenity": "place_of_worship",
    "denomination": "new_apostolic",
    "name": "Iglesia Nueva Apostólica",
    "religion": "christian"
  }
},
{
  "type": "node",
  "id": 2406425892,
  "lat": 41.9902309,
  "lon": 2.8258262,
  "timestamp": "2013-08-03T21:57:41Z",
  "version": 1,
  "changeset": 17209056,
  "user": "Kurt34",
  "uid": 334258,
  "tags": {
    "amenity": "place_of_worship",
    "denomination": "new_apostolic",
    "name": "Iglesia Nueva Apostólica",
    "religion": "christian"
  }
},
{
  "type": "node",
  "id": 2407662975,
  "lat": 42.1857748,
  "lon": 2.0650246,
  "timestamp": "2018-10-20T19:59:16Z",
  "version": 2,
  "changeset": 63713096,
  "user": "Jesús Gómez",
  "uid": 6389,
  "tags": {
    "amenity": "place_of_worship",
    "denomination": "catholic",
    "name": "Sant Esteve de la Riba",
    "religion": "christian",
    "wikidata": "Q18006745"
  }
},
{
  "type": "node",
  "id": 2408717131,
  "lat": 41.1655153,
  "lon": 0.4728574,
  "timestamp": "2018-01-02T05:39:58Z",
  "version": 3,
  "changeset": 55092009,
  "user": "pedrobv",
  "uid": 581863,
  "tags": {
    "amenity": "place_of_worship",
    "denomination": "catholic",
    "name": "Mare de Déu del Carme",
    "name:ca": "Mare de Déu del Carme",
    "religion": "christian"
  }
},